{
  "status": 1,
  "cafes": [
    {
      "id": "000703fe-cf8a-43c8-bd83-c90cfd61915f",
      "name": "\u8702\u5de2\u5496\u5561",
      "score": "咖啡廳",
      "latitude": 25.0040968,
      "longitude": 121.5152865,
      "type": "normal",
      "attr": {
        "is_starred": false,
        "is_donated": false,
        "is_friendly": false
      },
      "qualified": true,
      "isGoodForWorking": false
    },
    {
      "id": "0022fc3b-598f-4bb5-bb69-1b7d1b9b5202",
      "name": "The Kaffa Lovers",
      "score": "咖啡廳",
      "latitude": 25.044354,
      "longitude": 121.5304559,
      "type": "normal",
      "attr": {
        "is_starred": false,
        "is_donated": false,
        "is_friendly": false
      },
      "qualified": true,
      "isGoodForWorking": true
    },
    {
      "id": "005a5ee9-7460-4f8a-b965-8b9565ee1e4e",
      "name": "\u4e00\u676f\u5496\u5561\u58eb\u6797\u5e97",
      "score": "手作課程",
      "latitude": 25.0930205,
      "longitude": 121.5266778,
      "type": "normal",
      "attr": {
        "is_starred": false,
        "is_donated": false,
        "is_friendly": false
      },
      "qualified": true,
      "isGoodForWorking": false
    },
    {
      "id": "00971781-cad6-4a6f-8a38-b597d8a1488b",
      "name": "Full of Beans \u5145\u6eff\u8c46\u8c46\u5496\u5561\u9928",
      "score": 0,
      "latitude": 25.047838,
      "longitude": 121.5411381,
      "type": "藝文展覽",
      "attr": {
        "is_starred": false,
        "is_donated": false,
        "is_friendly": false
      },
      "qualified": true,
      "isGoodForWorking": false
    },
    {
      "id": "00b6ce2b-d92e-44e5-b1cb-daaa925a5135",
      "name": "\u826f\u98df\u7a76\u597d\u5e02\u96c6\u9910\u5ef3WONMI",
      "score": 21,
      "latitude": 25.0483545,
      "longitude": 121.5623004,
      "type": "normal",
      "attr": {
        "is_starred": false,
        "is_donated": false,
        "is_friendly": false
      },
      "qualified": true,
      "isGoodForWorking": false
    },
    {
      "id": "00e21150-8b6d-4a54-b4bb-5fa45099b15e",
      "name": "8\u865f\u5496\u5561\u5c4b",
      "score": 30,
      "latitude": 24.9746599,
      "longitude": 121.4403068,
      "type": "normal",
      "attr": {
        "is_starred": false,
        "is_donated": false,
        "is_friendly": false
      },
      "qualified": true,
      "isGoodForWorking": true
    },
    {
      "id": "00e89e4e-3f76-45a1-b868-5d0200ee4418",
      "name": "\u99ac\u5d17\u885727\u865f\u5496\u5561\u5c0f\u9928",
      "score": 23,
      "latitude": 25.0128963,
      "longitude": 122.003318,
      "type": "normal",
      "attr": {
        "is_starred": false,
        "is_donated": false,
        "is_friendly": false
      },
      "qualified": true,
      "isGoodForWorking": false
    },
    {
      "id": "0119ad06-feb7-47b4-90cc-f747859779ed",
      "name": "Olivia Coffee Roaster",
      "score": 19.5,
      "latitude": 25.0385194,
      "longitude": 121.5559712,
      "type": "normal",
      "attr": {
        "is_starred": false,
        "is_donated": false,
        "is_friendly": false
      },
      "qualified": true,
      "isGoodForWorking": true
    },
    {
      "id": "0149c291-311d-4eae-8bf3-0e4ebbf0763c",
      "name": "Caffe Ruelle \u5df7\u5b50\u58f9",
      "score": 29.5,
      "latitude": 25.1017758,
      "longitude": 121.5292749,
      "type": "normal",
      "attr": {
        "is_starred": false,
        "is_donated": false,
        "is_friendly": false
      },
      "qualified": true,
      "isGoodForWorking": true
    },
    {
      "id": "016980fa-bb2b-4393-9b76-b9a045e7b683",
      "name": "DEBORAH CAFE \u9edb\u535a\u62c9\u5496\u5561",
      "score": 0,
      "latitude": 25.0838423,
      "longitude": 121.5533577,
      "type": "normal",
      "attr": {
        "is_starred": false,
        "is_donated": false,
        "is_friendly": false
      },
      "qualified": true,
      "isGoodForWorking": false
    },
    {
      "id": "016fae0e-3475-4eef-90c9-4f719f62a35c",
      "name": "\u5c71\u5f91\u62fe\u5149 TRAIL COFFEE",
      "score": 0,
      "latitude": 25.0214088,
      "longitude": 121.53283,
      "type": "normal",
      "attr": {
        "is_starred": false,
        "is_donated": false,
        "is_friendly": false
      },
      "qualified": true,
      "isGoodForWorking": false
    },
    {
      "id": "01a7407d-653a-41b2-ad8f-88e4470ad2cf",
      "name": "\u745e\u5e1b\u5496\u5561Rebirth Coffee",
      "score": 24.5,
      "latitude": 25.0592232,
      "longitude": 121.5321395,
      "type": "normal",
      "attr": {
        "is_starred": false,
        "is_donated": false,
        "is_friendly": false
      },
      "qualified": true,
      "isGoodForWorking": true
    },
    {
      "id": "01af53e4-5472-45ef-b05b-2e642ea61639",
      "name": "\u5561\u5275\u5de5\u5ee0 Future Factory",
      "score": 26,
      "latitude": 25.069167,
      "longitude": 121.519598,
      "type": "normal",
      "attr": {
        "is_starred": false,
        "is_donated": false,
        "is_friendly": false
      },
      "qualified": true,
      "isGoodForWorking": true
    },
    {
      "id": "01b2cdcc-06bf-4fac-99d0-c1890346383a",
      "name": "MISS.CAFE\u8993\u98df\u9ede\u5496\u5561",
      "score": 27,
      "latitude": 25.0703946,
      "longitude": 121.4964912,
      "type": "normal",
      "attr": {
        "is_starred": false,
        "is_donated": false,
        "is_friendly": false
      },
      "qualified": true,
      "isGoodForWorking": false
    },
    {
      "id": "01be1d96-beb3-4471-889a-e550c99ea442",
      "name": "\u8278\u5730\u639b",
      "score": 19,
      "latitude": 25.0740458,
      "longitude": 121.6610147,
      "type": "normal",
      "attr": {
        "is_starred": false,
        "is_donated": false,
        "is_friendly": false
      },
      "qualified": true,
      "isGoodForWorking": false
    },
    {
      "id": "01d1d753-face-44ed-b596-e0f34bde6822",
      "name": "June Cafe \u516d\u6708\u5496\u5561",
      "score": 24,
      "latitude": 25.056659,
      "longitude": 121.521385,
      "type": "normal",
      "attr": {
        "is_starred": false,
        "is_donated": false,
        "is_friendly": false
      },
      "qualified": true,
      "isGoodForWorking": false
    },
    {
      "id": "01df22dc-8a44-41b9-9599-2b6f544bab90",
      "name": "Mase Cafe \u5496\u5561\u5c08\u9580\u5e97",
      "score": 28,
      "latitude": 25.0461232,
      "longitude": 121.5423724,
      "type": "normal",
      "attr": {
        "is_starred": false,
        "is_donated": false,
        "is_friendly": false
      },
      "qualified": true,
      "isGoodForWorking": true
    },
    {
      "id": "0202cdb3-f889-4bf6-8048-04a41c4234f8",
      "name": "Irga \u5c31\u6b64\u8036\u52a0\u70d8\u8c46\u574a\uff08\u81ea\u5bb6\u70d8\u7119\u5496\u5561\uff09",
      "score": 0,
      "latitude": 25.0308639,
      "longitude": 121.529278,
      "type": "normal",
      "attr": {
        "is_starred": false,
        "is_donated": false,
        "is_friendly": false
      },
      "qualified": true,
      "isGoodForWorking": false
    },
    {
      "id": "020b7dd9-91de-4781-a362-9ca9b690c1bc",
      "name": "\u6b50\u8c46\u9ea5",
      "score": 28,
      "latitude": 25.2194626,
      "longitude": 121.6378593,
      "type": "normal",
      "attr": {
        "is_starred": false,
        "is_donated": false,
        "is_friendly": false
      },
      "qualified": true,
      "isGoodForWorking": false
    }
  ]
}
