{
  "status": 1,
  "cafes": [
    {
      "id": "000703fe-cf8a-43c8-bd83-c90cfd61915f",
      "name": "\u8702\u5de2\u5496\u5561",
      "score": 20.5,
      "latitude": 25.0040968,
      "longitude": 121.5152865,
      "type": "normal",
      "attr": {
        "is_starred": false,
        "is_donated": false,
        "is_friendly": false
      },
      "qualified": true,
      "isGoodForWorking": false
    },
    {
      "id": "0022fc3b-598f-4bb5-bb69-1b7d1b9b5202",
      "name": "The Kaffa Lovers",
      "score": 29,
      "latitude": 25.044354,
      "longitude": 121.5304559,
      "type": "normal",
      "attr": {
        "is_starred": false,
        "is_donated": false,
        "is_friendly": false
      },
      "qualified": true,
      "isGoodForWorking": true
    },
    {
      "id": "005a5ee9-7460-4f8a-b965-8b9565ee1e4e",
      "name": "\u4e00\u676f\u5496\u5561\u58eb\u6797\u5e97",
      "score": 0,
      "latitude": 25.0930205,
      "longitude": 121.5266778,
      "type": "normal",
      "attr": {
        "is_starred": false,
        "is_donated": false,
        "is_friendly": false
      },
      "qualified": true,
      "isGoodForWorking": false
    },
    {
      "id": "00971781-cad6-4a6f-8a38-b597d8a1488b",
      "name": "Full of Beans \u5145\u6eff\u8c46\u8c46\u5496\u5561\u9928",
      "score": 0,
      "latitude": 25.047838,
      "longitude": 121.5411381,
      "type": "normal",
      "attr": {
        "is_starred": false,
        "is_donated": false,
        "is_friendly": false
      },
      "qualified": true,
      "isGoodForWorking": false
    },
    {
      "id": "00b6ce2b-d92e-44e5-b1cb-daaa925a5135",
      "name": "\u826f\u98df\u7a76\u597d\u5e02\u96c6\u9910\u5ef3WONMI",
      "score": 21,
      "latitude": 25.0483545,
      "longitude": 121.5623004,
      "type": "normal",
      "attr": {
        "is_starred": false,
        "is_donated": false,
        "is_friendly": false
      },
      "qualified": true,
      "isGoodForWorking": false
    },
    {
      "id": "00e21150-8b6d-4a54-b4bb-5fa45099b15e",
      "name": "8\u865f\u5496\u5561\u5c4b",
      "score": 30,
      "latitude": 24.9746599,
      "longitude": 121.4403068,
      "type": "normal",
      "attr": {
        "is_starred": false,
        "is_donated": false,
        "is_friendly": false
      },
      "qualified": true,
      "isGoodForWorking": true
    },
    {
      "id": "00e89e4e-3f76-45a1-b868-5d0200ee4418",
      "name": "\u99ac\u5d17\u885727\u865f\u5496\u5561\u5c0f\u9928",
      "score": 23,
      "latitude": 25.0128963,
      "longitude": 122.003318,
      "type": "normal",
      "attr": {
        "is_starred": false,
        "is_donated": false,
        "is_friendly": false
      },
      "qualified": true,
      "isGoodForWorking": false
    },
    {
      "id": "0119ad06-feb7-47b4-90cc-f747859779ed",
      "name": "Olivia Coffee Roaster",
      "score": 19.5,
      "latitude": 25.0385194,
      "longitude": 121.5559712,
      "type": "normal",
      "attr": {
        "is_starred": false,
        "is_donated": false,
        "is_friendly": false
      },
      "qualified": true,
      "isGoodForWorking": true
    },
    {
      "id": "0149c291-311d-4eae-8bf3-0e4ebbf0763c",
      "name": "Caffe Ruelle \u5df7\u5b50\u58f9",
      "score": 29.5,
      "latitude": 25.1017758,
      "longitude": 121.5292749,
      "type": "normal",
      "attr": {
        "is_starred": false,
        "is_donated": false,
        "is_friendly": false
      },
      "qualified": true,
      "isGoodForWorking": true
    },
    {
      "id": "016980fa-bb2b-4393-9b76-b9a045e7b683",
      "name": "DEBORAH CAFE \u9edb\u535a\u62c9\u5496\u5561",
      "score": 0,
      "latitude": 25.0838423,
      "longitude": 121.5533577,
      "type": "normal",
      "attr": {
        "is_starred": false,
        "is_donated": false,
        "is_friendly": false
      },
      "qualified": true,
      "isGoodForWorking": false
    },
    {
      "id": "016fae0e-3475-4eef-90c9-4f719f62a35c",
      "name": "\u5c71\u5f91\u62fe\u5149 TRAIL COFFEE",
      "score": 0,
      "latitude": 25.0214088,
      "longitude": 121.53283,
      "type": "normal",
      "attr": {
        "is_starred": false,
        "is_donated": false,
        "is_friendly": false
      },
      "qualified": true,
      "isGoodForWorking": false
    },
    {
      "id": "01a7407d-653a-41b2-ad8f-88e4470ad2cf",
      "name": "\u745e\u5e1b\u5496\u5561Rebirth Coffee",
      "score": 24.5,
      "latitude": 25.0592232,
      "longitude": 121.5321395,
      "type": "normal",
      "attr": {
        "is_starred": false,
        "is_donated": false,
        "is_friendly": false
      },
      "qualified": true,
      "isGoodForWorking": true
    },
    {
      "id": "01af53e4-5472-45ef-b05b-2e642ea61639",
      "name": "\u5561\u5275\u5de5\u5ee0 Future Factory",
      "score": 26,
      "latitude": 25.069167,
      "longitude": 121.519598,
      "type": "normal",
      "attr": {
        "is_starred": false,
        "is_donated": false,
        "is_friendly": false
      },
      "qualified": true,
      "isGoodForWorking": true
    },
    {
      "id": "01b2cdcc-06bf-4fac-99d0-c1890346383a",
      "name": "MISS.CAFE\u8993\u98df\u9ede\u5496\u5561",
      "score": 27,
      "latitude": 25.0703946,
      "longitude": 121.4964912,
      "type": "normal",
      "attr": {
        "is_starred": false,
        "is_donated": false,
        "is_friendly": false
      },
      "qualified": true,
      "isGoodForWorking": false
    },
    {
      "id": "01be1d96-beb3-4471-889a-e550c99ea442",
      "name": "\u8278\u5730\u639b",
      "score": 19,
      "latitude": 25.0740458,
      "longitude": 121.6610147,
      "type": "normal",
      "attr": {
        "is_starred": false,
        "is_donated": false,
        "is_friendly": false
      },
      "qualified": true,
      "isGoodForWorking": false
    },
    {
      "id": "01d1d753-face-44ed-b596-e0f34bde6822",
      "name": "June Cafe \u516d\u6708\u5496\u5561",
      "score": 24,
      "latitude": 25.056659,
      "longitude": 121.521385,
      "type": "normal",
      "attr": {
        "is_starred": false,
        "is_donated": false,
        "is_friendly": false
      },
      "qualified": true,
      "isGoodForWorking": false
    },
    {
      "id": "01df22dc-8a44-41b9-9599-2b6f544bab90",
      "name": "Mase Cafe \u5496\u5561\u5c08\u9580\u5e97",
      "score": 28,
      "latitude": 25.0461232,
      "longitude": 121.5423724,
      "type": "normal",
      "attr": {
        "is_starred": false,
        "is_donated": false,
        "is_friendly": false
      },
      "qualified": true,
      "isGoodForWorking": true
    },
    {
      "id": "0202cdb3-f889-4bf6-8048-04a41c4234f8",
      "name": "Irga \u5c31\u6b64\u8036\u52a0\u70d8\u8c46\u574a\uff08\u81ea\u5bb6\u70d8\u7119\u5496\u5561\uff09",
      "score": 0,
      "latitude": 25.0308639,
      "longitude": 121.529278,
      "type": "normal",
      "attr": {
        "is_starred": false,
        "is_donated": false,
        "is_friendly": false
      },
      "qualified": true,
      "isGoodForWorking": false
    },
    {
      "id": "020b7dd9-91de-4781-a362-9ca9b690c1bc",
      "name": "\u6b50\u8c46\u9ea5",
      "score": 28,
      "latitude": 25.2194626,
      "longitude": 121.6378593,
      "type": "normal",
      "attr": {
        "is_starred": false,
        "is_donated": false,
        "is_friendly": false
      },
      "qualified": true,
      "isGoodForWorking": false
    },
    {
      "id": "021ec6ad-4b10-4f91-8e50-48b7271fd2dd",
      "name": "\u5c0f\u5c0f\u852c\u623f",
      "score": 25,
      "latitude": 25.0464845,
      "longitude": 121.5040002,
      "type": "normal",
      "attr": {
        "is_starred": false,
        "is_donated": false,
        "is_friendly": false
      },
      "qualified": true,
      "isGoodForWorking": false
    },
    {
      "id": "022e3d53-0269-4027-a3dc-efce8238d100",
      "name": "\u9752\u9ce5",
      "score": 28,
      "latitude": 25.0443318,
      "longitude": 121.5293264,
      "type": "normal",
      "attr": {
        "is_starred": false,
        "is_donated": false,
        "is_friendly": false
      },
      "qualified": true,
      "isGoodForWorking": false
    },
    {
      "id": "026b222c-cd88-4e98-8c8e-fc7c889023fa",
      "name": "\u90a6\u5ba2\u601d\u7cbe\u54c1\u5496\u5561",
      "score": 30,
      "latitude": 24.9702523,
      "longitude": 121.5462711,
      "type": "normal",
      "attr": {
        "is_starred": false,
        "is_donated": false,
        "is_friendly": false
      },
      "qualified": true,
      "isGoodForWorking": false
    },
    {
      "id": "0284917d-169c-4142-b209-a5cf9782a775",
      "name": "\u516b\u8c46\u5496\u5561 BarDoor Coffee",
      "score": 0,
      "latitude": 25.0637249,
      "longitude": 121.52199,
      "type": "normal",
      "attr": {
        "is_starred": false,
        "is_donated": false,
        "is_friendly": false
      },
      "qualified": true,
      "isGoodForWorking": false
    },
    {
      "id": "029b75ed-a77f-484c-8428-042dedb59d5f",
      "name": "UNI CAFE",
      "score": 29,
      "latitude": 25.0214991,
      "longitude": 121.5232314,
      "type": "normal",
      "attr": {
        "is_starred": false,
        "is_donated": false,
        "is_friendly": false
      },
      "qualified": true,
      "isGoodForWorking": true
    },
    {
      "id": "02ab54d1-2792-41bb-a532-cdeb36cc2233",
      "name": "Pure Caf'e",
      "score": 30,
      "latitude": 25.0824206,
      "longitude": 121.5475701,
      "type": "normal",
      "attr": {
        "is_starred": false,
        "is_donated": false,
        "is_friendly": false
      },
      "qualified": true,
      "isGoodForWorking": true
    },
    {
      "id": "02b2105b-e7d9-401a-909f-e50434bb37ac",
      "name": "\u4e0d\u5982\u5496\u5561BLUBLU Kafe",
      "score": 25,
      "latitude": 25.0873949,
      "longitude": 121.4849328,
      "type": "normal",
      "attr": {
        "is_starred": false,
        "is_donated": false,
        "is_friendly": false
      },
      "qualified": true,
      "isGoodForWorking": true
    },
    {
      "id": "033c69b7-f696-48d2-8b03-abc81248bead",
      "name": "\u5b89\u63d0.\u53f8\u6735",
      "score": 0,
      "latitude": 25.0761446,
      "longitude": 121.6074954,
      "type": "normal",
      "attr": {
        "is_starred": false,
        "is_donated": false,
        "is_friendly": false
      },
      "qualified": true,
      "isGoodForWorking": false
    },
    {
      "id": "03503b40-8545-4f40-b5ac-9619d7c6c0c2",
      "name": "\u7aa9\u5fc3\u623fSweet-Art Coffee",
      "score": 21,
      "latitude": 25.0530229,
      "longitude": 121.4541062,
      "type": "normal",
      "attr": {
        "is_starred": false,
        "is_donated": false,
        "is_friendly": false
      },
      "qualified": true,
      "isGoodForWorking": false
    },
    {
      "id": "0351559f-090a-4ba5-a9f5-f821be0fbf2d",
      "name": "TRIBU CAFE (\u68ee\u512a\u5496\u5561\uff09",
      "score": 28.5,
      "latitude": 25.024141,
      "longitude": 121.55474,
      "type": "normal",
      "attr": {
        "is_starred": false,
        "is_donated": false,
        "is_friendly": false
      },
      "qualified": true,
      "isGoodForWorking": true
    },
    {
      "id": "036ccae9-2117-4aeb-b26a-a3fecc2cc708",
      "name": "\u771f\u7684\u5496\u5561 Zhen De Coffee",
      "score": 23,
      "latitude": 25.0001025,
      "longitude": 121.5383447,
      "type": "normal",
      "attr": {
        "is_starred": false,
        "is_donated": false,
        "is_friendly": false
      },
      "qualified": true,
      "isGoodForWorking": true
    },
    {
      "id": "037112c5-07d2-43b2-966e-1505042d810b",
      "name": "\u7537\u670b\u53cb\u2022\u5bb6",
      "score": 0,
      "latitude": 25.0544659,
      "longitude": 121.5356312,
      "type": "normal",
      "attr": {
        "is_starred": false,
        "is_donated": false,
        "is_friendly": false
      },
      "qualified": true,
      "isGoodForWorking": false
    },
    {
      "id": "03bbc2aa-13e4-4b22-b48d-9fe8b3bc6731",
      "name": "Cafe Fundoor \u5496\u5561\u65b9\u684c",
      "score": 24,
      "latitude": 25.0311982,
      "longitude": 121.5462302,
      "type": "normal",
      "attr": {
        "is_starred": false,
        "is_donated": false,
        "is_friendly": false
      },
      "qualified": true,
      "isGoodForWorking": false
    },
    {
      "id": "03c3c211-1536-430e-b388-c88987170891",
      "name": "WeiCoffee.",
      "score": 0,
      "latitude": 25.0537338,
      "longitude": 121.5350603,
      "type": "normal",
      "attr": {
        "is_starred": false,
        "is_donated": false,
        "is_friendly": false
      },
      "qualified": true,
      "isGoodForWorking": false
    },
    {
      "id": "04111f17-09e5-4989-b31f-974fa2406518",
      "name": "\u7267\u7ae5\u5496\u5561 mutto coffee(\u798f\u5fb7\u5e97)",
      "score": 27,
      "latitude": 25.0696779,
      "longitude": 121.6389371,
      "type": "normal",
      "attr": {
        "is_starred": false,
        "is_donated": false,
        "is_friendly": false
      },
      "qualified": true,
      "isGoodForWorking": true
    },
    {
      "id": "0413e74e-55cd-4e01-9321-c3e4b05120e9",
      "name": "BRICK WORKS TAIPEI (\u82b1\u535a\u5e97)",
      "score": 16,
      "latitude": 25.0696537,
      "longitude": 121.5217297,
      "type": "normal",
      "attr": {
        "is_starred": false,
        "is_donated": false,
        "is_friendly": false
      },
      "qualified": true,
      "isGoodForWorking": false
    },
    {
      "id": "041d34b2-2ae3-4924-a43f-a11d9f4ec454",
      "name": "Amandier cafe \u96c5\u8499\u8482\u5275\u610f\u98f2\u98df \u65b0\u751f\u5e97",
      "score": 0,
      "latitude": 25.0470363,
      "longitude": 121.5302826,
      "type": "normal",
      "attr": {
        "is_starred": false,
        "is_donated": false,
        "is_friendly": false
      },
      "qualified": true,
      "isGoodForWorking": false
    },
    {
      "id": "04229473-f0f4-430c-bb29-94eb36694ca2",
      "name": "\u9ea5\u515c\u5496\u5561",
      "score": 30,
      "latitude": 25.0820189,
      "longitude": 121.4587657,
      "type": "normal",
      "attr": {
        "is_starred": false,
        "is_donated": false,
        "is_friendly": false
      },
      "qualified": true,
      "isGoodForWorking": false
    },
    {
      "id": "0450b7ee-2ec6-4d70-b40a-55660fe668e4",
      "name": "\u6e5b\u76e7\u5496\u5561(\u5fe0\u5b5d\u5e97)",
      "score": 23,
      "latitude": 25.0414164,
      "longitude": 121.5449043,
      "type": "normal",
      "attr": {
        "is_starred": false,
        "is_donated": false,
        "is_friendly": false
      },
      "qualified": true,
      "isGoodForWorking": true
    },
    {
      "id": "04541fd6-dadd-4849-9ac1-35810133d432",
      "name": "A-way \u65b9\u5411\u5496\u5561",
      "score": 30,
      "latitude": 25.0169359,
      "longitude": 121.530442,
      "type": "normal",
      "attr": {
        "is_starred": false,
        "is_donated": false,
        "is_friendly": false
      },
      "qualified": true,
      "isGoodForWorking": false
    },
    {
      "id": "05341079-37f6-41a3-b057-9325c5b0343a",
      "name": "A8 Caf\u00e9 & Gallery",
      "score": 21,
      "latitude": 25.0249831,
      "longitude": 121.5494198,
      "type": "normal",
      "attr": {
        "is_starred": false,
        "is_donated": false,
        "is_friendly": false
      },
      "qualified": true,
      "isGoodForWorking": false
    },
    {
      "id": "053e917a-7fb7-4de7-b5dd-a48574026cb0",
      "name": "\u8c46BAR",
      "score": 28.5,
      "latitude": 24.9961312,
      "longitude": 121.5031926,
      "type": "normal",
      "attr": { "is_starred": true, "is_donated": false, "is_friendly": false },
      "qualified": true,
      "isGoodForWorking": true
    },
    {
      "id": "05dd1faa-3c45-4595-86ca-a255291c37f4",
      "name": "The Misanthrope Society \u53ad\u4e16\u6703\u793e",
      "score": 30,
      "latitude": 25.015118,
      "longitude": 121.533287,
      "type": "normal",
      "attr": {
        "is_starred": false,
        "is_donated": false,
        "is_friendly": false
      },
      "qualified": true,
      "isGoodForWorking": true
    },
    {
      "id": "06189665-869d-481c-aaa8-6307eb3b1338",
      "name": "Petite Cafe \u6ce2\u918d\u7cbe\u54c1\u5496\u5561\u9928 - \u4fe1\u7fa9\u65b0\u5149\u5e97",
      "score": 0,
      "latitude": 25.0396922,
      "longitude": 121.5664837,
      "type": "normal",
      "attr": {
        "is_starred": false,
        "is_donated": false,
        "is_friendly": false
      },
      "qualified": true,
      "isGoodForWorking": false
    },
    {
      "id": "0629850e-32df-4302-a3c5-489c01fecd4a",
      "name": "\u8def\u6613\u838e\u6a02\u7fa4\u5e97",
      "score": 16.5,
      "latitude": 25.079677,
      "longitude": 121.557198,
      "type": "normal",
      "attr": {
        "is_starred": false,
        "is_donated": false,
        "is_friendly": false
      },
      "qualified": true,
      "isGoodForWorking": false
    },
    {
      "id": "06c2c234-719e-44a2-b4b7-6029e52bdaf7",
      "name": "\u672a\u592e\u5496\u5561\u5e97",
      "score": 27,
      "latitude": 25.026258,
      "longitude": 121.547415,
      "type": "normal",
      "attr": { "is_starred": true, "is_donated": false, "is_friendly": false },
      "qualified": true,
      "isGoodForWorking": true
    },
    {
      "id": "06ccee78-2e3d-4dd8-bdde-d15c567ef7f8",
      "name": "\u679c\u5be6\u5496\u5561\u5802",
      "score": 30,
      "latitude": 25.0645582,
      "longitude": 121.5250633,
      "type": "normal",
      "attr": {
        "is_starred": false,
        "is_donated": false,
        "is_friendly": false
      },
      "qualified": true,
      "isGoodForWorking": false
    },
    {
      "id": "0755c5c5-ab0c-4f1f-b06d-665515e7556d",
      "name": "\u9ed1\u91d1\u9b5a\u5496\u5561\u9928",
      "score": 22,
      "latitude": 25.1327138,
      "longitude": 121.4987251,
      "type": "normal",
      "attr": {
        "is_starred": false,
        "is_donated": false,
        "is_friendly": false
      },
      "qualified": true,
      "isGoodForWorking": false
    },
    {
      "id": "07b4ecd4-096f-404b-9653-ca286b3d9efb",
      "name": "\u8001\u6d3e\u7684\u7d04\u6703",
      "score": 15,
      "latitude": 24.9716916,
      "longitude": 121.543026,
      "type": "normal",
      "attr": {
        "is_starred": false,
        "is_donated": false,
        "is_friendly": false
      },
      "qualified": true,
      "isGoodForWorking": false
    },
    {
      "id": "07dcbbfb-83f8-447c-a06a-f419d882522e",
      "name": "\u8349\u6ce5cafe",
      "score": 29.5,
      "latitude": 25.023824,
      "longitude": 121.550105,
      "type": "normal",
      "attr": {
        "is_starred": false,
        "is_donated": false,
        "is_friendly": false
      },
      "qualified": true,
      "isGoodForWorking": true
    },
    {
      "id": "07e6dd8a-5ea1-41c5-8cd8-a3e0fb8bfb16",
      "name": "Cafe Sind",
      "score": 26,
      "latitude": 25.041092,
      "longitude": 121.532195,
      "type": "normal",
      "attr": {
        "is_starred": false,
        "is_donated": false,
        "is_friendly": false
      },
      "qualified": true,
      "isGoodForWorking": true
    },
    {
      "id": "080acd88-d79e-4d5e-9e28-be043205080a",
      "name": "Coffee Buff",
      "score": 0,
      "latitude": 25.082814,
      "longitude": 121.545876,
      "type": "normal",
      "attr": {
        "is_starred": false,
        "is_donated": false,
        "is_friendly": false
      },
      "qualified": true,
      "isGoodForWorking": false
    },
    {
      "id": "0825fb03-45c4-4252-ae10-afec604403fb",
      "name": "Black Cafe \u9ed1\u5496\u5561",
      "score": 26.5,
      "latitude": 25.0084411,
      "longitude": 121.5150809,
      "type": "normal",
      "attr": {
        "is_starred": false,
        "is_donated": false,
        "is_friendly": false
      },
      "qualified": true,
      "isGoodForWorking": false
    },
    {
      "id": "0854de80-b774-4189-8f76-dfa13875d9e7",
      "name": "\u5a01\u5c3c\u65af\u73fe\u70d8\u5496\u5561",
      "score": 0,
      "latitude": 25.0276516,
      "longitude": 121.4631649,
      "type": "normal",
      "attr": {
        "is_starred": false,
        "is_donated": false,
        "is_friendly": false
      },
      "qualified": true,
      "isGoodForWorking": false
    },
    {
      "id": "085927d6-6035-4653-80d7-a936eecbe8cf",
      "name": "Sunday Morning \u661f\u671f\u5929\u65e9\u4e0a",
      "score": 29,
      "latitude": 25.022068,
      "longitude": 121.5505806,
      "type": "normal",
      "attr": {
        "is_starred": false,
        "is_donated": false,
        "is_friendly": false
      },
      "qualified": true,
      "isGoodForWorking": true
    },
    {
      "id": "086d0d9a-e246-439b-b289-2346e0424e3d",
      "name": "Strange Brew Coffe Roster \u602a\u5496\u5561\u81ea\u5bb6\u70d8\u7119",
      "score": 24,
      "latitude": 25.019182,
      "longitude": 121.5517394,
      "type": "normal",
      "attr": {
        "is_starred": false,
        "is_donated": false,
        "is_friendly": false
      },
      "qualified": true,
      "isGoodForWorking": true
    },
    {
      "id": "08b2d05d-5fca-4696-9594-40e03d6cc68e",
      "name": "Joco Latte",
      "score": 25,
      "latitude": 25.0574638,
      "longitude": 121.5425399,
      "type": "normal",
      "attr": {
        "is_starred": false,
        "is_donated": false,
        "is_friendly": false
      },
      "qualified": true,
      "isGoodForWorking": false
    },
    {
      "id": "08b86db5-298f-4013-935b-0fb38b48ea6b",
      "name": "\u6eab\u53e4\u5496\u5561Wengu cafe ",
      "score": 23,
      "latitude": 25.0434449,
      "longitude": 121.5477706,
      "type": "normal",
      "attr": {
        "is_starred": false,
        "is_donated": false,
        "is_friendly": false
      },
      "qualified": true,
      "isGoodForWorking": true
    },
    {
      "id": "0919aaaa-dfa8-453f-ad45-0308714612e9",
      "name": "\u7c73\u8a69\u5824\u6975\u5317\u85cd\u9ede",
      "score": 0,
      "latitude": 25.2856252,
      "longitude": 121.5234517,
      "type": "normal",
      "attr": {
        "is_starred": false,
        "is_donated": false,
        "is_friendly": false
      },
      "qualified": true,
      "isGoodForWorking": false
    },
    {
      "id": "094e56d7-ea50-4100-933c-82b7aaa06223",
      "name": "\u80d6\u8c46\u604b SWEET CAFE",
      "score": 0,
      "latitude": 25.051097,
      "longitude": 121.515684,
      "type": "normal",
      "attr": {
        "is_starred": false,
        "is_donated": false,
        "is_friendly": false
      },
      "qualified": true,
      "isGoodForWorking": false
    },
    {
      "id": "0962c13e-2daa-4418-bcb3-f4964aa3fffd",
      "name": "\u5357\u7f8e\u5496\u5561\u58eb\u6797\u5e97",
      "score": 21,
      "latitude": 25.0953305,
      "longitude": 121.5246671,
      "type": "normal",
      "attr": {
        "is_starred": false,
        "is_donated": false,
        "is_friendly": false
      },
      "qualified": true,
      "isGoodForWorking": true
    },
    {
      "id": "096cf777-34be-466f-bbdb-e73138f6d317",
      "name": "\u751f\u7522\u8005\u5496\u5561",
      "score": 0,
      "latitude": 25.0031464,
      "longitude": 121.4674412,
      "type": "normal",
      "attr": {
        "is_starred": false,
        "is_donated": false,
        "is_friendly": false
      },
      "qualified": true,
      "isGoodForWorking": false
    },
    {
      "id": "0977afa5-5332-4df6-b1fc-e9ca6972c2a1",
      "name": "Instil coffee dimension",
      "score": 0,
      "latitude": 25.0309893,
      "longitude": 121.542826,
      "type": "normal",
      "attr": {
        "is_starred": false,
        "is_donated": false,
        "is_friendly": false
      },
      "qualified": true,
      "isGoodForWorking": false
    },
    {
      "id": "09da4b26-4df3-484c-8dec-4bc40b9ef939",
      "name": "Cafe Walker",
      "score": 25,
      "latitude": 25.032214,
      "longitude": 121.560539,
      "type": "normal",
      "attr": {
        "is_starred": false,
        "is_donated": false,
        "is_friendly": false
      },
      "qualified": true,
      "isGoodForWorking": true
    },
    {
      "id": "09e5703a-bdef-4653-91d0-3911f4abeaa9",
      "name": "\u7fc1\u6797\uff0e\u6797Caf'e",
      "score": 25,
      "latitude": 25.0222591,
      "longitude": 121.4702863,
      "type": "normal",
      "attr": {
        "is_starred": false,
        "is_donated": false,
        "is_friendly": false
      },
      "qualified": true,
      "isGoodForWorking": true
    },
    {
      "id": "0a2ebcd9-57a8-4ae6-8cff-c6634bf5b5eb",
      "name": "Balcony \u967d\u53f0 Caf\u00e9",
      "score": 23.5,
      "latitude": 25.081589,
      "longitude": 121.545608,
      "type": "normal",
      "attr": {
        "is_starred": false,
        "is_donated": false,
        "is_friendly": false
      },
      "qualified": true,
      "isGoodForWorking": true
    },
    {
      "id": "0aa1849a-3991-4655-ba96-ae805958cc7e",
      "name": "\u55ac\u5b89\u62fe\u8c46\u5496\u5561 Gian 6 degrees Coffee",
      "score": 19,
      "latitude": 25.0355027,
      "longitude": 121.5450064,
      "type": "normal",
      "attr": {
        "is_starred": false,
        "is_donated": false,
        "is_friendly": false
      },
      "qualified": true,
      "isGoodForWorking": false
    },
    {
      "id": "0aece6dd-674d-4c84-8483-c27a0c427acf",
      "name": "\u77f3\u5c1a\u81ea\u7136\u63a2\u7d22\u5c4b \u4e8c\u5b50\u576a\u5e97",
      "score": 17,
      "latitude": 25.1860896,
      "longitude": 121.5252407,
      "type": "normal",
      "attr": {
        "is_starred": false,
        "is_donated": false,
        "is_friendly": false
      },
      "qualified": true,
      "isGoodForWorking": false
    },
    {
      "id": "0b443d83-6b29-4000-b7ce-1005ec9c784e",
      "name": "COFFEE: CAPE",
      "score": 30,
      "latitude": 24.9751029,
      "longitude": 121.536927,
      "type": "normal",
      "attr": {
        "is_starred": false,
        "is_donated": false,
        "is_friendly": false
      },
      "qualified": true,
      "isGoodForWorking": true
    },
    {
      "id": "0b498efa-63fb-47f1-8ccf-9c36f230cf19",
      "name": "\u5e0c\u671b\u7a2e\u5b50\u5496\u5561\u5de5\u574a",
      "score": 27,
      "latitude": 24.9713766,
      "longitude": 121.5429818,
      "type": "normal",
      "attr": {
        "is_starred": false,
        "is_donated": false,
        "is_friendly": false
      },
      "qualified": true,
      "isGoodForWorking": false
    },
    {
      "id": "0b7014cb-433f-4f82-9417-923e3cb556ce",
      "name": "OrigInn Space",
      "score": 23,
      "latitude": 25.0535585,
      "longitude": 121.5100807,
      "type": "normal",
      "attr": {
        "is_starred": false,
        "is_donated": false,
        "is_friendly": false
      },
      "qualified": true,
      "isGoodForWorking": false
    },
    {
      "id": "0ba42deb-1d0c-4b2a-a3aa-d7a731e74717",
      "name": "\u767d\u65e5\u5922TEA&CAFE",
      "score": 0,
      "latitude": 25.2790084,
      "longitude": 121.6061039,
      "type": "normal",
      "attr": {
        "is_starred": false,
        "is_donated": false,
        "is_friendly": false
      },
      "qualified": true,
      "isGoodForWorking": false
    },
    {
      "id": "0bdf2f07-b369-43b9-bf74-7c96d9d3eb54",
      "name": "\u9d09\u57e0\u5496\u5561 YABOO II \u8cb3\u865f\u5e97",
      "score": 0,
      "latitude": 25.030483,
      "longitude": 121.529266,
      "type": "normal",
      "attr": {
        "is_starred": false,
        "is_donated": false,
        "is_friendly": false
      },
      "qualified": true,
      "isGoodForWorking": false
    },
    {
      "id": "0c18bfa9-66b1-454a-814c-8813872e4276",
      "name": "\u51f1\u502b\u5496\u5561",
      "score": 26,
      "latitude": 25.056744,
      "longitude": 121.523906,
      "type": "normal",
      "attr": {
        "is_starred": false,
        "is_donated": false,
        "is_friendly": false
      },
      "qualified": true,
      "isGoodForWorking": false
    },
    {
      "id": "0c53b8f8-feac-4c50-bba2-f2db6daeaf1b",
      "name": "\u66fc\u66fc\u5496\u5561",
      "score": 14,
      "latitude": 25.1712956,
      "longitude": 121.4451182,
      "type": "normal",
      "attr": {
        "is_starred": false,
        "is_donated": false,
        "is_friendly": false
      },
      "qualified": true,
      "isGoodForWorking": false
    },
    {
      "id": "0c6620ac-2e42-43c3-a400-3959073751f3",
      "name": "\u585e\u7279\u5496\u5561\u5834\u6240  coffee site",
      "score": 27,
      "latitude": 25.062203,
      "longitude": 121.5002682,
      "type": "normal",
      "attr": {
        "is_starred": false,
        "is_donated": false,
        "is_friendly": false
      },
      "qualified": true,
      "isGoodForWorking": false
    },
    {
      "id": "0cd4de8e-9afe-47be-baa0-15dae06b30a4",
      "name": "\u5496\u5561\u8449 CoffeeLeaf",
      "score": 0,
      "latitude": 25.0649113,
      "longitude": 121.4972469,
      "type": "normal",
      "attr": {
        "is_starred": false,
        "is_donated": false,
        "is_friendly": false
      },
      "qualified": true,
      "isGoodForWorking": false
    },
    {
      "id": "0cf21549-7aa8-4390-af76-f005c7fb5140",
      "name": "Moi Cafe \u4ec1\u611b\u5e97",
      "score": 23,
      "latitude": 25.037229,
      "longitude": 121.5569862,
      "type": "normal",
      "attr": {
        "is_starred": false,
        "is_donated": false,
        "is_friendly": false
      },
      "qualified": true,
      "isGoodForWorking": false
    },
    {
      "id": "0d1d7b95-b9c2-4938-9d2c-20119951c2db",
      "name": "es Cafe",
      "score": 0,
      "latitude": 25.059268,
      "longitude": 121.518424,
      "type": "normal",
      "attr": {
        "is_starred": false,
        "is_donated": false,
        "is_friendly": false
      },
      "qualified": true,
      "isGoodForWorking": false
    },
    {
      "id": "0d6b1205-2150-4db3-8d19-0eb4e66ae584",
      "name": "\u8679\u55ac\u5496\u5561",
      "score": 15,
      "latitude": 25.0717422,
      "longitude": 121.5181439,
      "type": "normal",
      "attr": {
        "is_starred": false,
        "is_donated": false,
        "is_friendly": false
      },
      "qualified": true,
      "isGoodForWorking": false
    },
    {
      "id": "0d76c91e-5c36-4b11-a8b9-b2b144e53e32",
      "name": "19\u70d8\u8c46\u7814\u7a76\u5ba4",
      "score": 0,
      "latitude": 25.0597868,
      "longitude": 121.5641462,
      "type": "normal",
      "attr": {
        "is_starred": false,
        "is_donated": false,
        "is_friendly": false
      },
      "qualified": true,
      "isGoodForWorking": false
    },
    {
      "id": "0d998551-e179-4a77-811d-0521634c5169",
      "name": "Cross Caf\u00e9\u514b\u52de\u65af\u5496\u5561\u5e97",
      "score": 11,
      "latitude": 25.0386526,
      "longitude": 121.5466962,
      "type": "normal",
      "attr": {
        "is_starred": false,
        "is_donated": false,
        "is_friendly": false
      },
      "qualified": true,
      "isGoodForWorking": false
    },
    {
      "id": "0dac9ce2-a95b-44df-bd89-99a164858567",
      "name": "\u5496\u7ac5Cotcha Coffee \u6c38\u6625\u5e97",
      "score": 13,
      "latitude": 25.040422,
      "longitude": 121.575344,
      "type": "normal",
      "attr": {
        "is_starred": false,
        "is_donated": false,
        "is_friendly": false
      },
      "qualified": true,
      "isGoodForWorking": false
    },
    {
      "id": "0dc0ea65-a6ab-41fb-a782-29e88dd603a2",
      "name": "Ferrari coffee ",
      "score": 27,
      "latitude": 25.0645026,
      "longitude": 121.5247676,
      "type": "normal",
      "attr": {
        "is_starred": false,
        "is_donated": false,
        "is_friendly": false
      },
      "qualified": true,
      "isGoodForWorking": true
    },
    {
      "id": "0de448f3-f9ca-48a1-82ea-6035f20af922",
      "name": "1315 coffee",
      "score": 27,
      "latitude": 25.043523,
      "longitude": 121.566915,
      "type": "normal",
      "attr": {
        "is_starred": false,
        "is_donated": false,
        "is_friendly": false
      },
      "qualified": true,
      "isGoodForWorking": true
    },
    {
      "id": "0e73b0a5-81c5-4d6d-8346-58eafc2f7c05",
      "name": "\u52a0\u723e\u7b2c\u5496\u5561(\u838a\u656c\u5e97)",
      "score": 26,
      "latitude": 25.027609,
      "longitude": 121.563975,
      "type": "normal",
      "attr": {
        "is_starred": false,
        "is_donated": false,
        "is_friendly": false
      },
      "qualified": true,
      "isGoodForWorking": true
    },
    {
      "id": "0e84bc06-154c-4077-9c08-d56213a0f46f",
      "name": "La Grotta",
      "score": 28,
      "latitude": 25.038885,
      "longitude": 121.5078383,
      "type": "normal",
      "attr": {
        "is_starred": false,
        "is_donated": false,
        "is_friendly": false
      },
      "qualified": true,
      "isGoodForWorking": true
    },
    {
      "id": "0ed14106-5c73-4946-8939-d3cc3c01290b",
      "name": "Coffee to know \u5496\u5561\u77e5\u9053",
      "score": 0,
      "latitude": 25.0502211,
      "longitude": 121.5772625,
      "type": "normal",
      "attr": {
        "is_starred": false,
        "is_donated": false,
        "is_friendly": false
      },
      "qualified": true,
      "isGoodForWorking": false
    },
    {
      "id": "0f4f58b2-4dcc-4640-ae7a-20411fb6f2de",
      "name": "\u81ea\u753151",
      "score": 27,
      "latitude": 25.0073894,
      "longitude": 121.5378133,
      "type": "normal",
      "attr": {
        "is_starred": false,
        "is_donated": false,
        "is_friendly": false
      },
      "qualified": true,
      "isGoodForWorking": true
    },
    {
      "id": "0f522698-df75-44d9-b9d2-b0c104e9befe",
      "name": "settled cafe",
      "score": 28,
      "latitude": 25.0464223,
      "longitude": 121.5042021,
      "type": "normal",
      "attr": {
        "is_starred": false,
        "is_donated": false,
        "is_friendly": false
      },
      "qualified": true,
      "isGoodForWorking": true
    },
    {
      "id": "0f637d6b-20cc-4e5f-84af-22d810e4f01b",
      "name": "MamiCoffee\u5abd\u54aa\u5496\u5561\u9928",
      "score": 26,
      "latitude": 25.1185931,
      "longitude": 121.5253364,
      "type": "normal",
      "attr": {
        "is_starred": false,
        "is_donated": false,
        "is_friendly": false
      },
      "qualified": true,
      "isGoodForWorking": false
    },
    {
      "id": "0fa59083-9ec5-4276-9179-edb0ffa6f7eb",
      "name": "\u534a\u8def\u5496\u5561halfway cafe",
      "score": 27,
      "latitude": 25.020138,
      "longitude": 121.531603,
      "type": "normal",
      "attr": {
        "is_starred": false,
        "is_donated": false,
        "is_friendly": false
      },
      "qualified": true,
      "isGoodForWorking": true
    },
    {
      "id": "0fa95a64-50ef-44e7-964b-b95e6ebf07cf",
      "name": "\u4e39\u5824\u5496\u5561",
      "score": 14,
      "latitude": 25.0245088,
      "longitude": 121.5476531,
      "type": "normal",
      "attr": {
        "is_starred": false,
        "is_donated": false,
        "is_friendly": false
      },
      "qualified": true,
      "isGoodForWorking": false
    },
    {
      "id": "0fd48859-2ffa-4972-92d8-38f035eb7d12",
      "name": "\u597d\u65e5\u5b50\u5496\u5561",
      "score": 24.5,
      "latitude": 25.1187368,
      "longitude": 121.5159304,
      "type": "normal",
      "attr": {
        "is_starred": false,
        "is_donated": false,
        "is_friendly": false
      },
      "qualified": true,
      "isGoodForWorking": true
    },
    {
      "id": "0ff323b1-1a2c-468b-89d8-d60e8d348f9a",
      "name": "\u53c1\u62fe\u53c1\u5496\u5561 - \u5b89\u6771\u5e97",
      "score": 0,
      "latitude": 25.04656,
      "longitude": 121.5418047,
      "type": "normal",
      "attr": {
        "is_starred": false,
        "is_donated": false,
        "is_friendly": false
      },
      "qualified": true,
      "isGoodForWorking": false
    },
    {
      "id": "1061312f-f1f9-495d-9b1e-78d34ac13b18",
      "name": "\u53f0\u535a\u5496\u5561\u9928\u6050\u9f8d\u9910\u5ef3",
      "score": 16,
      "latitude": 25.0435651,
      "longitude": 121.5141637,
      "type": "normal",
      "attr": {
        "is_starred": false,
        "is_donated": false,
        "is_friendly": false
      },
      "qualified": true,
      "isGoodForWorking": false
    },
    {
      "id": "109bac76-c30c-4c33-bfe9-bf8c193b5d90",
      "name": "\u5c0f\u7d05\u5e3d\u5496\u5561Julius Meinl",
      "score": 0,
      "latitude": 25.0366411,
      "longitude": 121.545911,
      "type": "normal",
      "attr": {
        "is_starred": false,
        "is_donated": false,
        "is_friendly": false
      },
      "qualified": true,
      "isGoodForWorking": false
    },
    {
      "id": "10bc5efd-a609-4491-929d-a4bc7224e09a",
      "name": "\u8001\u7aa9\u5496\u5561-\u6797\u53e3\u4ec1\u611b\u5e97",
      "score": 28,
      "latitude": 25.0770847,
      "longitude": 121.3740369,
      "type": "normal",
      "attr": {
        "is_starred": false,
        "is_donated": false,
        "is_friendly": false
      },
      "qualified": true,
      "isGoodForWorking": false
    },
    {
      "id": "10e6ab47-3e1f-4f5a-8b46-321de52a28b1",
      "name": "Here Caffe\u9019\u5152\u5496\u5561",
      "score": 20.5,
      "latitude": 24.988674,
      "longitude": 121.573599,
      "type": "normal",
      "attr": {
        "is_starred": false,
        "is_donated": false,
        "is_friendly": false
      },
      "qualified": true,
      "isGoodForWorking": false
    },
    {
      "id": "111b06dc-9267-4fb5-b4e3-4c17b1d1e21e",
      "name": "George House",
      "score": 22,
      "latitude": 25.0596165,
      "longitude": 121.534755,
      "type": "normal",
      "attr": {
        "is_starred": false,
        "is_donated": false,
        "is_friendly": false
      },
      "qualified": true,
      "isGoodForWorking": true
    },
    {
      "id": "115856f4-2b54-48b5-8aae-3a890f607690",
      "name": "\u9ede\u9ede\u751c\u751c Ten Ten Den Den",
      "score": 23.5,
      "latitude": 25.0173549,
      "longitude": 121.461712,
      "type": "normal",
      "attr": {
        "is_starred": false,
        "is_donated": false,
        "is_friendly": false
      },
      "qualified": true,
      "isGoodForWorking": true
    },
    {
      "id": "115ed978-9df5-4a9c-b511-5fa90d1e1d65",
      "name": "\u515c\u9ea5\u5496\u5561",
      "score": 0,
      "latitude": 25.0831779,
      "longitude": 121.4610058,
      "type": "normal",
      "attr": {
        "is_starred": false,
        "is_donated": false,
        "is_friendly": false
      },
      "qualified": true,
      "isGoodForWorking": false
    },
    {
      "id": "116438cf-8d8d-4734-a935-03b320acdde7",
      "name": "\u5e03\u590f\u62c9\u5824",
      "score": 26.5,
      "latitude": 25.0798622,
      "longitude": 121.5925028,
      "type": "normal",
      "attr": {
        "is_starred": false,
        "is_donated": false,
        "is_friendly": false
      },
      "qualified": true,
      "isGoodForWorking": true
    },
    {
      "id": "118e515d-1a06-49f6-a9d9-f5ea3a02a31a",
      "name": "It's Coffee",
      "score": 0,
      "latitude": 25.050809,
      "longitude": 121.522738,
      "type": "normal",
      "attr": {
        "is_starred": false,
        "is_donated": false,
        "is_friendly": false
      },
      "qualified": true,
      "isGoodForWorking": false
    },
    {
      "id": "11ca2d5c-ddff-40eb-a96c-e4fd77b93ee0",
      "name": "\u4e2d\u592e\u516c\u5712\u5496\u5561\u9928",
      "score": 28,
      "latitude": 25.018081,
      "longitude": 121.530254,
      "type": "normal",
      "attr": {
        "is_starred": false,
        "is_donated": false,
        "is_friendly": false
      },
      "qualified": true,
      "isGoodForWorking": true
    },
    {
      "id": "11d0e9ec-710b-42d8-9987-cd68699b1a28",
      "name": "\u723a\u8336 GRANDPA",
      "score": 27,
      "latitude": 25.0542429,
      "longitude": 121.5349749,
      "type": "normal",
      "attr": {
        "is_starred": false,
        "is_donated": false,
        "is_friendly": false
      },
      "qualified": true,
      "isGoodForWorking": false
    },
    {
      "id": "11e0db34-861e-404f-b7e3-b8ad295cde5b",
      "name": "boven cafe",
      "score": 0,
      "latitude": 25.0441952,
      "longitude": 121.5451715,
      "type": "normal",
      "attr": {
        "is_starred": false,
        "is_donated": false,
        "is_friendly": false
      },
      "qualified": true,
      "isGoodForWorking": false
    },
    {
      "id": "1209b7cc-033f-4634-bf7d-d6f933f012cb",
      "name": "\u5c0f\u57ce\u5916\u73c8\u7432 Caff\u00e9 CityNorth",
      "score": 28,
      "latitude": 25.0564743,
      "longitude": 121.5107779,
      "type": "normal",
      "attr": {
        "is_starred": false,
        "is_donated": false,
        "is_friendly": false
      },
      "qualified": true,
      "isGoodForWorking": true
    },
    {
      "id": "124cf800-7274-46f6-8129-e9a8c861a7d2",
      "name": " Lagom cafe \u62c9\u9769\u59c6\u5496\u5561",
      "score": 27,
      "latitude": 25.0617829,
      "longitude": 121.5868605,
      "type": "normal",
      "attr": {
        "is_starred": false,
        "is_donated": false,
        "is_friendly": false
      },
      "qualified": true,
      "isGoodForWorking": false
    },
    {
      "id": "126fdedf-8651-4673-b02f-f7c9f7c9120b",
      "name": "\u6f38\u6f38\u5496\u5561\u5e97",
      "score": 29,
      "latitude": 25.0403858,
      "longitude": 121.5261773,
      "type": "normal",
      "attr": {
        "is_starred": false,
        "is_donated": false,
        "is_friendly": false
      },
      "qualified": true,
      "isGoodForWorking": true
    },
    {
      "id": "127d68b0-a3e3-4543-b161-3e3ff5e6c3d8",
      "name": "\u8389\u5712\u5546\u884c",
      "score": 23.5,
      "latitude": 25.036126,
      "longitude": 121.5257065,
      "type": "normal",
      "attr": {
        "is_starred": false,
        "is_donated": false,
        "is_friendly": false
      },
      "qualified": true,
      "isGoodForWorking": true
    },
    {
      "id": "12b19b25-b196-4ec5-8936-defc3fcc1168",
      "name": "\u6eff\u6eff\u5496\u5561",
      "score": 0,
      "latitude": 25.0806105,
      "longitude": 121.522082,
      "type": "normal",
      "attr": {
        "is_starred": false,
        "is_donated": false,
        "is_friendly": false
      },
      "qualified": true,
      "isGoodForWorking": false
    },
    {
      "id": "12cedd32-829e-439c-a6d4-ec62f4b6c8bb",
      "name": "\u6674\u5883\u6613\u5f97",
      "score": 27,
      "latitude": 25.0424028,
      "longitude": 121.5400551,
      "type": "normal",
      "attr": {
        "is_starred": false,
        "is_donated": false,
        "is_friendly": false
      },
      "qualified": true,
      "isGoodForWorking": true
    },
    {
      "id": "12d4f700-7a94-4262-bbea-a5403248a223",
      "name": "The Antipodean Specialty Coffee",
      "score": 24,
      "latitude": 25.082664,
      "longitude": 121.577807,
      "type": "normal",
      "attr": {
        "is_starred": false,
        "is_donated": false,
        "is_friendly": false
      },
      "qualified": true,
      "isGoodForWorking": true
    },
    {
      "id": "12f8235d-4372-41e1-a7e7-678ff9843996",
      "name": "\u771f\u934b\u73c8\u7432\u9928",
      "score": 22.5,
      "latitude": 25.0924035,
      "longitude": 121.5258189,
      "type": "normal",
      "attr": {
        "is_starred": false,
        "is_donated": false,
        "is_friendly": false
      },
      "qualified": true,
      "isGoodForWorking": true
    },
    {
      "id": "13090d5f-425f-476a-8449-f728ad8968a3",
      "name": "\u5c0f\u98df\u7cd6 sugar bistro",
      "score": 22.5,
      "latitude": 25.034252,
      "longitude": 121.529468,
      "type": "normal",
      "attr": {
        "is_starred": false,
        "is_donated": false,
        "is_friendly": false
      },
      "qualified": true,
      "isGoodForWorking": true
    },
    {
      "id": "131f425b-aa41-47aa-a61b-855f470c98e2",
      "name": "\u4e00\u6587\u5496\u5561",
      "score": 28,
      "latitude": 25.050894,
      "longitude": 121.557035,
      "type": "normal",
      "attr": {
        "is_starred": false,
        "is_donated": false,
        "is_friendly": false
      },
      "qualified": true,
      "isGoodForWorking": true
    },
    {
      "id": "13217c2c-90be-41d5-b21f-c933a7fd4f3e",
      "name": "\u9999\u9047Arom amour",
      "score": 0,
      "latitude": 25.0539207,
      "longitude": 121.5364784,
      "type": "normal",
      "attr": {
        "is_starred": false,
        "is_donated": false,
        "is_friendly": false
      },
      "qualified": true,
      "isGoodForWorking": false
    },
    {
      "id": "1342099d-0b00-428b-9b0b-3733ca23ac1f",
      "name": "The Aroma ",
      "score": 24,
      "latitude": 25.04081,
      "longitude": 121.506566,
      "type": "normal",
      "attr": {
        "is_starred": false,
        "is_donated": false,
        "is_friendly": false
      },
      "qualified": true,
      "isGoodForWorking": false
    },
    {
      "id": "13484332-eff7-476e-aa8b-140ed085b863",
      "name": "\u7aa9\u8457\u5496\u5561 perch cafe",
      "score": 0,
      "latitude": 25.0509018,
      "longitude": 121.5335673,
      "type": "normal",
      "attr": {
        "is_starred": false,
        "is_donated": false,
        "is_friendly": false
      },
      "qualified": true,
      "isGoodForWorking": false
    },
    {
      "id": "1362a761-e109-4b55-ae99-bdaede207218",
      "name": " Cafe Ballet \u82ad\u857e\u5496\u5561\u9928",
      "score": 22,
      "latitude": 25.0571355,
      "longitude": 121.5604765,
      "type": "normal",
      "attr": {
        "is_starred": false,
        "is_donated": false,
        "is_friendly": false
      },
      "qualified": true,
      "isGoodForWorking": true
    },
    {
      "id": "136d4fe1-6639-4c0c-8d68-1323763daf38",
      "name": "Emu Cafe",
      "score": 30,
      "latitude": 25.0561412,
      "longitude": 121.6114122,
      "type": "normal",
      "attr": {
        "is_starred": false,
        "is_donated": false,
        "is_friendly": false
      },
      "qualified": true,
      "isGoodForWorking": true
    },
    {
      "id": "137657f1-c591-4c36-8283-694fb5882a76",
      "name": "Orange\u770b\u96fb\u8eca\u5496\u5561\u9928",
      "score": 21.5,
      "latitude": 25.0919579,
      "longitude": 121.5263679,
      "type": "normal",
      "attr": {
        "is_starred": false,
        "is_donated": false,
        "is_friendly": false
      },
      "qualified": true,
      "isGoodForWorking": true
    },
    {
      "id": "13a61b2e-2afc-4465-b97c-6ee17212bd9d",
      "name": "\u91ce\u592b\u5496\u5561 \u677f\u6a4b\u5e9c\u4e2d\u5e97",
      "score": 28,
      "latitude": 25.011103,
      "longitude": 121.460051,
      "type": "normal",
      "attr": {
        "is_starred": false,
        "is_donated": false,
        "is_friendly": false
      },
      "qualified": true,
      "isGoodForWorking": false
    },
    {
      "id": "140e90f5-3110-4f72-903a-ea7012edfb60",
      "name": "\u9999\u6295\u5496\u5561",
      "score": 0,
      "latitude": 25.0816154,
      "longitude": 121.5891974,
      "type": "normal",
      "attr": {
        "is_starred": false,
        "is_donated": false,
        "is_friendly": false
      },
      "qualified": true,
      "isGoodForWorking": false
    },
    {
      "id": "141526df-4437-4c0f-8fb0-01f88e5ec5ae",
      "name": "THIRD FLOOR COFFEE \u5728\u4e09\u6a13",
      "score": 19,
      "latitude": 25.047267,
      "longitude": 121.543217,
      "type": "normal",
      "attr": {
        "is_starred": false,
        "is_donated": false,
        "is_friendly": false
      },
      "qualified": true,
      "isGoodForWorking": true
    },
    {
      "id": "1418d631-40ce-4137-abd5-ecb2347f47ac",
      "name": "N3 Cafe",
      "score": 0,
      "latitude": 25.0557911,
      "longitude": 121.5210944,
      "type": "normal",
      "attr": {
        "is_starred": false,
        "is_donated": false,
        "is_friendly": false
      },
      "qualified": true,
      "isGoodForWorking": false
    },
    {
      "id": "151b68be-76f3-43d2-a475-9dc7c31f6afc",
      "name": "Coffee Maker",
      "score": 21,
      "latitude": 25.0080836,
      "longitude": 121.4580825,
      "type": "normal",
      "attr": {
        "is_starred": false,
        "is_donated": false,
        "is_friendly": false
      },
      "qualified": true,
      "isGoodForWorking": false
    },
    {
      "id": "1578bc2e-e1fb-43c7-94ac-08856a49bbbc",
      "name": "\u8def\u6613\u838e\u571f\u57ce\u4e2d\u592e\u5e97",
      "score": 23,
      "latitude": 24.974911,
      "longitude": 121.44166,
      "type": "normal",
      "attr": {
        "is_starred": false,
        "is_donated": false,
        "is_friendly": false
      },
      "qualified": true,
      "isGoodForWorking": true
    },
    {
      "id": "159fe541-355a-4d4d-8603-00721abbadfb",
      "name": "\u98a8\u66dc\u5496\u5561\u574a",
      "score": 30,
      "latitude": 25.0366108,
      "longitude": 121.547138,
      "type": "new",
      "attr": {
        "is_starred": false,
        "is_donated": false,
        "is_friendly": false
      },
      "qualified": true,
      "isGoodForWorking": true
    },
    {
      "id": "15b8150d-4ef3-4899-bfa4-83f075176236",
      "name": "\u8272\u5496\u5561",
      "score": 21,
      "latitude": 25.0442259,
      "longitude": 121.510552,
      "type": "normal",
      "attr": {
        "is_starred": false,
        "is_donated": false,
        "is_friendly": false
      },
      "qualified": true,
      "isGoodForWorking": false
    },
    {
      "id": "15da944a-e3f1-4911-b5af-9ee9ba4e42ea",
      "name": "\u5496\u6a02\u70d8\u8c46colorroast",
      "score": 17,
      "latitude": 25.0431579,
      "longitude": 121.5538405,
      "type": "normal",
      "attr": {
        "is_starred": false,
        "is_donated": false,
        "is_friendly": false
      },
      "qualified": true,
      "isGoodForWorking": false
    },
    {
      "id": "15e0f87e-5d21-43ed-9601-99f832f737ac",
      "name": "Cafe Pichot",
      "score": 27,
      "latitude": 25.0506635,
      "longitude": 121.543099,
      "type": "normal",
      "attr": {
        "is_starred": false,
        "is_donated": false,
        "is_friendly": false
      },
      "qualified": true,
      "isGoodForWorking": true
    },
    {
      "id": "15e6d692-6edb-4ec6-8cfc-8c1ab488f28a",
      "name": "Cho cafe\u5982\u56fa\u5496\u5561",
      "score": 24,
      "latitude": 25.0418973,
      "longitude": 121.5047744,
      "type": "normal",
      "attr": {
        "is_starred": false,
        "is_donated": false,
        "is_friendly": false
      },
      "qualified": true,
      "isGoodForWorking": true
    },
    {
      "id": "1626bb56-d8c0-4442-886b-10c77a0e1d5d",
      "name": "Coffee Boy Hop Man",
      "score": 27,
      "latitude": 25.0194492,
      "longitude": 121.5318148,
      "type": "new",
      "attr": {
        "is_starred": false,
        "is_donated": false,
        "is_friendly": false
      },
      "qualified": true,
      "isGoodForWorking": true
    },
    {
      "id": "164da9ef-26fc-4cc9-b0bf-9268bfcabd36",
      "name": "Pica Pica Caf\u00e9 \u559c\u9d72\u5496\u5561",
      "score": 26,
      "latitude": 25.020938,
      "longitude": 121.531749,
      "type": "normal",
      "attr": {
        "is_starred": false,
        "is_donated": false,
        "is_friendly": false
      },
      "qualified": true,
      "isGoodForWorking": true
    },
    {
      "id": "16576075-71a0-417e-9158-f9dde53547d9",
      "name": "\u7530\u908a\u804a\u5bee",
      "score": 19,
      "latitude": 24.9764889,
      "longitude": 121.8918169,
      "type": "normal",
      "attr": {
        "is_starred": false,
        "is_donated": false,
        "is_friendly": false
      },
      "qualified": true,
      "isGoodForWorking": false
    },
    {
      "id": "165d194f-3a0a-4826-bb1b-d5db34d1cd6f",
      "name": "\u963f\u798f\u8349\uff5c\u8f15\u98df\u2027\u98f2",
      "score": 19.5,
      "latitude": 25.1325182,
      "longitude": 121.4696818,
      "type": "normal",
      "attr": {
        "is_starred": false,
        "is_donated": false,
        "is_friendly": false
      },
      "qualified": true,
      "isGoodForWorking": true
    },
    {
      "id": "1678e229-629d-4100-a306-cd479895d58a",
      "name": "\u51b0\u6597\u55ab\u751c",
      "score": 0,
      "latitude": 25.0242462,
      "longitude": 121.5145617,
      "type": "normal",
      "attr": {
        "is_starred": false,
        "is_donated": false,
        "is_friendly": false
      },
      "qualified": true,
      "isGoodForWorking": false
    },
    {
      "id": "16dfafc9-15f5-467e-a557-d3d255bf6b3f",
      "name": "\u5f7c\u5f97\u597d\u5496\u5561",
      "score": 23,
      "latitude": 25.0350754,
      "longitude": 121.4488414,
      "type": "normal",
      "attr": {
        "is_starred": false,
        "is_donated": false,
        "is_friendly": false
      },
      "qualified": true,
      "isGoodForWorking": true
    },
    {
      "id": "171ebdba-5b79-47c9-b064-6e430fb42754",
      "name": " \u6cb3\u7530\u5496\u5561\u9928",
      "score": 0,
      "latitude": 25.0548342,
      "longitude": 121.5240024,
      "type": "normal",
      "attr": {
        "is_starred": false,
        "is_donated": false,
        "is_friendly": false
      },
      "qualified": true,
      "isGoodForWorking": false
    },
    {
      "id": "178983c7-888a-4c66-bfb6-0104b327532c",
      "name": "\u96f2\u4e0a\u5496\u5561",
      "score": 28,
      "latitude": 24.963749,
      "longitude": 121.540481,
      "type": "normal",
      "attr": {
        "is_starred": false,
        "is_donated": false,
        "is_friendly": false
      },
      "qualified": true,
      "isGoodForWorking": true
    },
    {
      "id": "17bb36b0-a810-4d1d-ac7b-37e54b8bc287",
      "name": "Coffee Sweet",
      "score": 21,
      "latitude": 25.0483789,
      "longitude": 121.5221988,
      "type": "normal",
      "attr": {
        "is_starred": false,
        "is_donated": false,
        "is_friendly": false
      },
      "qualified": true,
      "isGoodForWorking": true
    },
    {
      "id": "17f3a04e-d0f3-4859-b06f-9ef4fed5d604",
      "name": "\u5f15\u8def\u5496\u5561",
      "score": 29,
      "latitude": 25.037749,
      "longitude": 121.576446,
      "type": "normal",
      "attr": {
        "is_starred": false,
        "is_donated": false,
        "is_friendly": false
      },
      "qualified": true,
      "isGoodForWorking": true
    },
    {
      "id": "17f6c986-9f99-41d8-a255-4c486fc3809c",
      "name": "\u9318\u5b50\u5496\u5561\u6de1\u5927\u5e97",
      "score": 0,
      "latitude": 25.1740706,
      "longitude": 121.4473008,
      "type": "normal",
      "attr": {
        "is_starred": false,
        "is_donated": false,
        "is_friendly": false
      },
      "qualified": true,
      "isGoodForWorking": false
    },
    {
      "id": "1832f5fa-4706-4856-854d-3d08bbc104b2",
      "name": "\u5c0f\u82d7\u82d7\u3002\u7cbe\u54c1\u5496\u5561 ",
      "score": 0,
      "latitude": 22.6835233,
      "longitude": 120.5016509,
      "type": "normal",
      "attr": {
        "is_starred": false,
        "is_donated": false,
        "is_friendly": false
      },
      "qualified": true,
      "isGoodForWorking": false
    },
    {
      "id": "18398807-8c39-41fe-9ee6-735019b75c39",
      "name": "LIN CAFE\u6728\u6728\u73c8\u7432",
      "score": 28,
      "latitude": 25.0850896,
      "longitude": 121.4790964,
      "type": "normal",
      "attr": {
        "is_starred": false,
        "is_donated": false,
        "is_friendly": false
      },
      "qualified": true,
      "isGoodForWorking": true
    },
    {
      "id": "187e7900-4cdc-4f51-a31c-9557dbee36e7",
      "name": "\u73cd\u5983\u5496\u5561\u574a-\u5fa9\u8208\u5e97",
      "score": 0,
      "latitude": 25.057097,
      "longitude": 121.545061,
      "type": "normal",
      "attr": {
        "is_starred": false,
        "is_donated": false,
        "is_friendly": false
      },
      "qualified": true,
      "isGoodForWorking": false
    },
    {
      "id": "18959d76-5585-48d4-920a-f22f38e85431",
      "name": "\u897f\u96c5\u5716\u6975\u54c1\u56b4\u7119\u5496\u5561\u9928 Barista Premium",
      "score": 21,
      "latitude": 25.0411942,
      "longitude": 121.55446,
      "type": "normal",
      "attr": {
        "is_starred": false,
        "is_donated": false,
        "is_friendly": false
      },
      "qualified": true,
      "isGoodForWorking": false
    },
    {
      "id": "18adce15-9934-43be-a00c-0cf510b0edbc",
      "name": "\u516b\u6708\u5341\u516d\u5496\u5561",
      "score": 30,
      "latitude": 25.1115578,
      "longitude": 121.5287841,
      "type": "normal",
      "attr": {
        "is_starred": false,
        "is_donated": false,
        "is_friendly": false
      },
      "qualified": true,
      "isGoodForWorking": true
    },
    {
      "id": "1927c136-efb2-4b2e-aa3c-11ba2dcad916",
      "name": "\u96f2\u6d77\u5496\u5561",
      "score": 0,
      "latitude": 25.0080691,
      "longitude": 121.5220146,
      "type": "normal",
      "attr": {
        "is_starred": false,
        "is_donated": false,
        "is_friendly": false
      },
      "qualified": true,
      "isGoodForWorking": false
    },
    {
      "id": "1930a8b0-dd16-4eff-9398-03ba98940aa6",
      "name": "Naissance Coffee ",
      "score": 25,
      "latitude": 25.0223011,
      "longitude": 121.5258045,
      "type": "normal",
      "attr": {
        "is_starred": false,
        "is_donated": false,
        "is_friendly": false
      },
      "qualified": true,
      "isGoodForWorking": false
    },
    {
      "id": "1942b20a-a2ae-43ce-9a0c-bdfe9adba3fe",
      "name": "\u6eab\u5e8a NEST",
      "score": 22,
      "latitude": 25.03025,
      "longitude": 121.531324,
      "type": "normal",
      "attr": {
        "is_starred": false,
        "is_donated": false,
        "is_friendly": false
      },
      "qualified": true,
      "isGoodForWorking": true
    },
    {
      "id": "1947f4a1-5b42-4358-8c5b-4453e9e4fbce",
      "name": "\u5b89\u548c353\u5496\u5561\u6703\u9928",
      "score": 23.5,
      "latitude": 25.0318376,
      "longitude": 121.5528962,
      "type": "normal",
      "attr": {
        "is_starred": false,
        "is_donated": false,
        "is_friendly": false
      },
      "qualified": true,
      "isGoodForWorking": false
    },
    {
      "id": "196bab63-bdb1-4b2a-87ca-232d2727f90b",
      "name": "\u5275\u5ba2\u5496\u5561\u9928 V CAf\u00e9",
      "score": 22,
      "latitude": 25.039523,
      "longitude": 121.5504128,
      "type": "normal",
      "attr": {
        "is_starred": false,
        "is_donated": false,
        "is_friendly": false
      },
      "qualified": true,
      "isGoodForWorking": false
    },
    {
      "id": "197d52b6-b557-4df5-829e-c222a4a06e80",
      "name": "\u98a8\u7b8f\u4eba\u5496\u5561",
      "score": 28,
      "latitude": 25.0001998,
      "longitude": 121.5461527,
      "type": "normal",
      "attr": {
        "is_starred": false,
        "is_donated": false,
        "is_friendly": false
      },
      "qualified": true,
      "isGoodForWorking": true
    },
    {
      "id": "1987ae9b-d1c9-4d1a-9593-03832fad46d4",
      "name": "Imperfect coffee & matcha",
      "score": 22,
      "latitude": 25.0173015,
      "longitude": 121.5331637,
      "type": "normal",
      "attr": {
        "is_starred": false,
        "is_donated": false,
        "is_friendly": false
      },
      "qualified": true,
      "isGoodForWorking": true
    },
    {
      "id": "1a13ad55-9405-4710-9afa-d660edf8f6b1",
      "name": "\u6b12\u6a39\u4e0b\u66f8\u623f\u5496\u5561",
      "score": 26,
      "latitude": 25.023319,
      "longitude": 121.533193,
      "type": "normal",
      "attr": {
        "is_starred": false,
        "is_donated": false,
        "is_friendly": false
      },
      "qualified": true,
      "isGoodForWorking": true
    },
    {
      "id": "1a24f5f1-1ba5-4739-b686-9ccc0daf6776",
      "name": "CAFE RACO",
      "score": 25,
      "latitude": 25.0585287,
      "longitude": 121.5349366,
      "type": "normal",
      "attr": {
        "is_starred": false,
        "is_donated": false,
        "is_friendly": false
      },
      "qualified": true,
      "isGoodForWorking": true
    },
    {
      "id": "1a2aae6d-8a66-4944-9b72-7d7e960ba0a3",
      "name": "\u5de5\u5bd3\u5496\u5561",
      "score": 24,
      "latitude": 25.0320343,
      "longitude": 121.4329607,
      "type": "normal",
      "attr": {
        "is_starred": false,
        "is_donated": false,
        "is_friendly": false
      },
      "qualified": true,
      "isGoodForWorking": true
    },
    {
      "id": "1a3c35a2-a7cf-46c3-9b1f-ef970ede47f0",
      "name": "\u863f\u83c8\u611b\u5496\u5561 Rola I Coffee",
      "score": 26,
      "latitude": 25.045359,
      "longitude": 121.527111,
      "type": "normal",
      "attr": {
        "is_starred": false,
        "is_donated": false,
        "is_friendly": false
      },
      "qualified": true,
      "isGoodForWorking": false
    },
    {
      "id": "1a6f8140-05be-464c-b677-5d345612661d",
      "name": " Fl\u00fcgel Studio",
      "score": 19,
      "latitude": 25.0197256,
      "longitude": 121.5302455,
      "type": "normal",
      "attr": {
        "is_starred": false,
        "is_donated": false,
        "is_friendly": false
      },
      "qualified": true,
      "isGoodForWorking": false
    },
    {
      "id": "1acae5d0-8657-45da-8866-40359ce00b10",
      "name": "KONZY KAVA",
      "score": 30,
      "latitude": 25.0551856,
      "longitude": 121.5437075,
      "type": "normal",
      "attr": {
        "is_starred": false,
        "is_donated": false,
        "is_friendly": false
      },
      "qualified": true,
      "isGoodForWorking": true
    },
    {
      "id": "1afe64b3-16a1-4f64-b11b-349e2b646739",
      "name": "Miss May Cafe",
      "score": 0,
      "latitude": 24.9790716,
      "longitude": 121.5429428,
      "type": "normal",
      "attr": {
        "is_starred": false,
        "is_donated": false,
        "is_friendly": false
      },
      "qualified": true,
      "isGoodForWorking": false
    },
    {
      "id": "1b1aac6a-23fc-4fc5-9f4c-da4bf76aab2e",
      "name": "\u5ca9\u6238\u73c8\u7432\u5e97 Iwato Coffee ",
      "score": 0,
      "latitude": 25.070694,
      "longitude": 121.518747,
      "type": "normal",
      "attr": {
        "is_starred": false,
        "is_donated": false,
        "is_friendly": false
      },
      "qualified": true,
      "isGoodForWorking": false
    },
    {
      "id": "1b27b22d-e3e1-41aa-8147-0a7298e690c6",
      "name": "\u5bb8\u54c1\u5496\u5561",
      "score": 20.5,
      "latitude": 25.0260844,
      "longitude": 121.5322824,
      "type": "normal",
      "attr": {
        "is_starred": false,
        "is_donated": false,
        "is_friendly": false
      },
      "qualified": true,
      "isGoodForWorking": false
    },
    {
      "id": "1b38587b-d1e4-435b-a1ad-d9a5957d4cf3",
      "name": "Le Zinc \u6d1b Caf\u00e9 & Bar",
      "score": 16,
      "latitude": 25.0559812,
      "longitude": 121.510548,
      "type": "normal",
      "attr": {
        "is_starred": false,
        "is_donated": false,
        "is_friendly": false
      },
      "qualified": true,
      "isGoodForWorking": false
    },
    {
      "id": "1b477be8-ae09-405c-b0c4-fa6483a345f0",
      "name": "\u7f85\u7235\u5496\u5561",
      "score": 0,
      "latitude": 25.0261858,
      "longitude": 121.5548749,
      "type": "normal",
      "attr": {
        "is_starred": false,
        "is_donated": false,
        "is_friendly": false
      },
      "qualified": true,
      "isGoodForWorking": false
    },
    {
      "id": "1b49ecaa-35ba-49f2-8837-12b78cb5f712",
      "name": "\u8001\u6728\u5496\u5561",
      "score": 24.5,
      "latitude": 25.025521,
      "longitude": 121.5516685,
      "type": "normal",
      "attr": {
        "is_starred": false,
        "is_donated": false,
        "is_friendly": false
      },
      "qualified": true,
      "isGoodForWorking": true
    },
    {
      "id": "1b52d379-7025-47ab-88b7-b8e4eb103ab3",
      "name": "\u4eba\u6027\u7a7a\u9593 \u65b0\u751f\u5357\u8def\u5e97",
      "score": 21,
      "latitude": 25.020211,
      "longitude": 121.533374,
      "type": "normal",
      "attr": {
        "is_starred": false,
        "is_donated": false,
        "is_friendly": false
      },
      "qualified": true,
      "isGoodForWorking": true
    },
    {
      "id": "1bc123d6-d975-48cd-ac1e-40c529e610db",
      "name": "\u77ed\u77ed_DuanDuan_\u8c93\u54aa\u4e2d\u9014\u4e4b\u5bb6\u5496\u5561\u5ef3",
      "score": 30,
      "latitude": 25.0313629,
      "longitude": 121.475772,
      "type": "normal",
      "attr": {
        "is_starred": false,
        "is_donated": false,
        "is_friendly": false
      },
      "qualified": true,
      "isGoodForWorking": false
    },
    {
      "id": "1bd05da1-5ded-48a8-a126-db3a67dc662e",
      "name": "Louisa \u660e\u5fb7\u5e97",
      "score": 0,
      "latitude": 25.1098627,
      "longitude": 121.5198654,
      "type": "normal",
      "attr": {
        "is_starred": false,
        "is_donated": false,
        "is_friendly": false
      },
      "qualified": true,
      "isGoodForWorking": false
    },
    {
      "id": "1bf5e0b9-865d-4ecb-9c95-d94c13aeca64",
      "name": "313 \u5496\u5561\u9b54\u8c46\u5c4b",
      "score": 26.5,
      "latitude": 25.0321185,
      "longitude": 121.5592686,
      "type": "normal",
      "attr": {
        "is_starred": false,
        "is_donated": false,
        "is_friendly": false
      },
      "qualified": true,
      "isGoodForWorking": true
    },
    {
      "id": "1bfbd693-2ed6-418f-9292-0d0be5d1be4a",
      "name": "LAIFA Coffee Bar - \u4f86\u767c\u5496\u5561\u5427",
      "score": 28,
      "latitude": 24.981212,
      "longitude": 121.4191423,
      "type": "normal",
      "attr": {
        "is_starred": false,
        "is_donated": false,
        "is_friendly": false
      },
      "qualified": true,
      "isGoodForWorking": true
    },
    {
      "id": "1c203319-7a05-454a-a77f-783a6c6ff434",
      "name": "\u746a\u5409\u5496\u5561(\u5df2\u6b47\u696d)",
      "score": 18,
      "latitude": 25.071012,
      "longitude": 121.51874,
      "type": "normal",
      "attr": {
        "is_starred": false,
        "is_donated": false,
        "is_friendly": false
      },
      "qualified": true,
      "isGoodForWorking": false
    },
    {
      "id": "1cf90ed5-a6f6-4843-95b2-fd21a16e630f",
      "name": "Easy Coffee(\u53f0\u5317\u5e02\u5eb7\u5fa9\u4e4b\u53cb\u5354\u6703\u9644\u8a2d\u5496\u5561\u574a)",
      "score": 26,
      "latitude": 25.0450245,
      "longitude": 121.5231057,
      "type": "normal",
      "attr": {
        "is_starred": false,
        "is_donated": false,
        "is_friendly": false
      },
      "qualified": true,
      "isGoodForWorking": false
    },
    {
      "id": "1d11654b-aa29-4cc1-9af4-70f0246225a4",
      "name": "\u66ae\u5149\u5496\u5561\uff0fTwilight Cafe",
      "score": 24.5,
      "latitude": 25.035985,
      "longitude": 121.553851,
      "type": "normal",
      "attr": {
        "is_starred": false,
        "is_donated": false,
        "is_friendly": false
      },
      "qualified": true,
      "isGoodForWorking": false
    },
    {
      "id": "1e207561-87a2-4ccc-946c-0853a1480aca",
      "name": "\u7995\u58a8\u5546\u884c",
      "score": 29,
      "latitude": 24.9914657,
      "longitude": 121.5073878,
      "type": "normal",
      "attr": {
        "is_starred": false,
        "is_donated": false,
        "is_friendly": false
      },
      "qualified": true,
      "isGoodForWorking": true
    },
    {
      "id": "1e6b0067-9389-41d0-bfd3-4fef2f3ca7ce",
      "name": "Merci cr\u00e9me",
      "score": 22.5,
      "latitude": 25.017662,
      "longitude": 121.466514,
      "type": "normal",
      "attr": {
        "is_starred": false,
        "is_donated": false,
        "is_friendly": false
      },
      "qualified": true,
      "isGoodForWorking": false
    },
    {
      "id": "1eedae3c-4edd-4310-8f4e-28a9bdf2799e",
      "name": "\u6c99\u8c9d\u8449",
      "score": 0,
      "latitude": 25.1794423,
      "longitude": 121.4364457,
      "type": "normal",
      "attr": {
        "is_starred": false,
        "is_donated": false,
        "is_friendly": false
      },
      "qualified": true,
      "isGoodForWorking": false
    },
    {
      "id": "1f35f58a-6cb1-4921-9e1e-dcedb5c90ad4",
      "name": "\u68ee\u591c\u5496\u5561 Caf\u00e9 de Minuit",
      "score": 24.5,
      "latitude": 25.0240846,
      "longitude": 121.5240986,
      "type": "normal",
      "attr": {
        "is_starred": false,
        "is_donated": false,
        "is_friendly": false
      },
      "qualified": true,
      "isGoodForWorking": true
    },
    {
      "id": "1f5b48c7-66a5-47ab-8a56-6b6f6ebc4581",
      "name": "\u6eab\u53e8CAFE",
      "score": 22.5,
      "latitude": 25.0345356,
      "longitude": 121.5324958,
      "type": "normal",
      "attr": {
        "is_starred": false,
        "is_donated": false,
        "is_friendly": false
      },
      "qualified": true,
      "isGoodForWorking": true
    },
    {
      "id": "1f690c42-6937-4af6-b6f5-4a33ded03322",
      "name": "\u6a13\u68af\u597d\u9661 Steep Stairs",
      "score": 29,
      "latitude": 25.0585498,
      "longitude": 121.5149151,
      "type": "normal",
      "attr": {
        "is_starred": false,
        "is_donated": false,
        "is_friendly": false
      },
      "qualified": true,
      "isGoodForWorking": true
    },
    {
      "id": "1f6c0c43-6816-4359-b751-6dfb4337ff04",
      "name": "Cafetaster\u5496\u5561\u55dc\u8005",
      "score": 0,
      "latitude": 25.023435,
      "longitude": 121.530057,
      "type": "normal",
      "attr": {
        "is_starred": false,
        "is_donated": false,
        "is_friendly": false
      },
      "qualified": true,
      "isGoodForWorking": false
    },
    {
      "id": "1f89a138-f86b-4435-a755-0910a74ef023",
      "name": " 11 Cafe'",
      "score": 0,
      "latitude": 25.042562,
      "longitude": 121.562883,
      "type": "normal",
      "attr": {
        "is_starred": false,
        "is_donated": false,
        "is_friendly": false
      },
      "qualified": true,
      "isGoodForWorking": false
    },
    {
      "id": "1facf65d-ca9b-4f93-a49f-5d6a5b31532a",
      "name": "\u91ce\u592b\u5496\u5561 \u677f\u6a4b\u4ecb\u58fd\u5e97",
      "score": 23,
      "latitude": 25.020095,
      "longitude": 121.46786,
      "type": "normal",
      "attr": {
        "is_starred": false,
        "is_donated": false,
        "is_friendly": false
      },
      "qualified": true,
      "isGoodForWorking": true
    },
    {
      "id": "1fc91fe3-61b5-4269-8af8-5ddb1ffe1ff3",
      "name": "\u675c\u514b\u5496\u5561",
      "score": 28,
      "latitude": 25.0846589,
      "longitude": 121.4723888,
      "type": "normal",
      "attr": {
        "is_starred": false,
        "is_donated": false,
        "is_friendly": false
      },
      "qualified": true,
      "isGoodForWorking": false
    },
    {
      "id": "20062978-4966-4787-9a93-a0d9d1594530",
      "name": "\u5de2 nido",
      "score": 29,
      "latitude": 25.0412474,
      "longitude": 121.5691575,
      "type": "normal",
      "attr": {
        "is_starred": false,
        "is_donated": false,
        "is_friendly": false
      },
      "qualified": true,
      "isGoodForWorking": true
    },
    {
      "id": "201a1f0a-7992-4b5c-9516-92962809e089",
      "name": "\u8def\u6613\u838e\u65b0\u6708\u6a4b\u5e97",
      "score": 26,
      "latitude": 25.0321938,
      "longitude": 121.4502464,
      "type": "normal",
      "attr": {
        "is_starred": false,
        "is_donated": false,
        "is_friendly": false
      },
      "qualified": true,
      "isGoodForWorking": false
    },
    {
      "id": "202320a8-d1a9-4770-9ca1-64af20773609",
      "name": "\u7247\u5834\u5496\u5561 Film Studio Cafe",
      "score": 25,
      "latitude": 25.0196698,
      "longitude": 121.5332758,
      "type": "normal",
      "attr": {
        "is_starred": false,
        "is_donated": false,
        "is_friendly": false
      },
      "qualified": true,
      "isGoodForWorking": true
    },
    {
      "id": "204d73c8-cd30-4532-bb49-1c69a827262f",
      "name": "\u5929\u5cf6\u5496\u5561TenshimaCafe",
      "score": 22,
      "latitude": 24.9940195,
      "longitude": 121.541397,
      "type": "normal",
      "attr": {
        "is_starred": false,
        "is_donated": false,
        "is_friendly": false
      },
      "qualified": true,
      "isGoodForWorking": false
    },
    {
      "id": "2093f778-6068-4383-8638-8b414f56d231",
      "name": "\u8e29\u8e29\u6c34cafe",
      "score": 0,
      "latitude": 25.0210939,
      "longitude": 121.5229182,
      "type": "normal",
      "attr": {
        "is_starred": false,
        "is_donated": false,
        "is_friendly": false
      },
      "qualified": true,
      "isGoodForWorking": false
    },
    {
      "id": "20ffb53f-8fdd-46c9-8a84-b7c2a58107fd",
      "name": " \u5fb7\u4f48Debut Cafe \u53f0\u5317\u5e97",
      "score": 25,
      "latitude": 25.0464066,
      "longitude": 121.5322336,
      "type": "normal",
      "attr": {
        "is_starred": false,
        "is_donated": false,
        "is_friendly": false
      },
      "qualified": true,
      "isGoodForWorking": true
    },
    {
      "id": "2134fa7b-b73d-4dea-82c9-ab6e2fa2f244",
      "name": "\u5eda\u5690\u5496\u5561",
      "score": 26,
      "latitude": 25.0507369,
      "longitude": 121.5535215,
      "type": "normal",
      "attr": {
        "is_starred": false,
        "is_donated": false,
        "is_friendly": false
      },
      "qualified": true,
      "isGoodForWorking": false
    },
    {
      "id": "21469c03-bcfb-45f4-9298-04f2742f7c62",
      "name": "\u89d2\u85cd\u8272 Cafe",
      "score": 28,
      "latitude": 25.1143996,
      "longitude": 121.5303403,
      "type": "normal",
      "attr": {
        "is_starred": false,
        "is_donated": false,
        "is_friendly": false
      },
      "qualified": true,
      "isGoodForWorking": true
    },
    {
      "id": "2159850b-d8de-4cdf-8d16-4467dcd65ecf",
      "name": "O.L.O Caf\u00e9",
      "score": 26,
      "latitude": 25.0516804,
      "longitude": 121.5603609,
      "type": "normal",
      "attr": {
        "is_starred": false,
        "is_donated": false,
        "is_friendly": false
      },
      "qualified": true,
      "isGoodForWorking": false
    },
    {
      "id": "21607582-17e9-4545-a2f0-b6de3c14244a",
      "name": "\u7a7f\u8d8a\u4e5d\u5343\u516c\u91cc\u4ea4\u7d66\u4f60",
      "score": 24,
      "latitude": 25.059982,
      "longitude": 121.5480059,
      "type": "normal",
      "attr": {
        "is_starred": false,
        "is_donated": false,
        "is_friendly": false
      },
      "qualified": true,
      "isGoodForWorking": true
    },
    {
      "id": "2187d0a4-13d5-4ae2-a7f4-9e40008cf0d5",
      "name": "\u52fe\u766e\u5496\u5561GOEE COFFEE ",
      "score": 0,
      "latitude": 25.0249357,
      "longitude": 121.5447523,
      "type": "normal",
      "attr": {
        "is_starred": false,
        "is_donated": false,
        "is_friendly": false
      },
      "qualified": true,
      "isGoodForWorking": false
    },
    {
      "id": "21909412-d2ef-478f-add3-ab093518fd4e",
      "name": " P\u00e2tisserie ALEX \u6cd5\u5f0f\u751c\u9ede",
      "score": 20,
      "latitude": 25.042999,
      "longitude": 121.562892,
      "type": "normal",
      "attr": {
        "is_starred": false,
        "is_donated": false,
        "is_friendly": false
      },
      "qualified": true,
      "isGoodForWorking": true
    },
    {
      "id": "219e580e-0699-40a9-beda-c7f6492bf195",
      "name": "\u5b75\u5496\u5561-\u5b75\u73c8\u7432\u6d0b\u9928",
      "score": 0,
      "latitude": 25.058165,
      "longitude": 121.510386,
      "type": "normal",
      "attr": {
        "is_starred": false,
        "is_donated": false,
        "is_friendly": false
      },
      "qualified": true,
      "isGoodForWorking": false
    },
    {
      "id": "21db4bf1-b317-410f-be5f-2a85c924c21b",
      "name": "Scent cafe\u9999\u624b\u637b\u5496\u5561",
      "score": 0,
      "latitude": 25.055606,
      "longitude": 121.509247,
      "type": "normal",
      "attr": {
        "is_starred": false,
        "is_donated": false,
        "is_friendly": false
      },
      "qualified": true,
      "isGoodForWorking": false
    },
    {
      "id": "21e000f6-cfa0-4a0d-98f1-458185114051",
      "name": "\u907f\u4e16\u6240",
      "score": 22.5,
      "latitude": 25.0243012,
      "longitude": 121.528817,
      "type": "normal",
      "attr": {
        "is_starred": false,
        "is_donated": false,
        "is_friendly": false
      },
      "qualified": true,
      "isGoodForWorking": true
    },
    {
      "id": "21f43255-7d37-4925-8c35-4c7e983cef7f",
      "name": "\u65c5\u5fc3\u5496\u5561",
      "score": 28,
      "latitude": 25.0540584,
      "longitude": 121.4512637,
      "type": "normal",
      "attr": {
        "is_starred": false,
        "is_donated": false,
        "is_friendly": false
      },
      "qualified": true,
      "isGoodForWorking": false
    },
    {
      "id": "21f6efd2-9b1c-4bb0-800c-6a55a337f8a9",
      "name": "11\u865f\u7cbe\u54c1\u5496\u5561",
      "score": 28,
      "latitude": 25.0272664,
      "longitude": 121.4925016,
      "type": "normal",
      "attr": {
        "is_starred": false,
        "is_donated": false,
        "is_friendly": false
      },
      "qualified": true,
      "isGoodForWorking": false
    },
    {
      "id": "222efbec-61ae-492c-b3f9-31175b43b68b",
      "name": "Coffee Window \u5496\u5561\u6587\u6735 \u7cbe\u54c1\u5496\u5561 / \u65b0\u9bae\u70d8\u7119",
      "score": 0,
      "latitude": 25.0452778,
      "longitude": 121.5236135,
      "type": "normal",
      "attr": {
        "is_starred": false,
        "is_donated": false,
        "is_friendly": false
      },
      "qualified": true,
      "isGoodForWorking": false
    },
    {
      "id": "22507ff7-7175-4d54-8465-46ef15d73865",
      "name": "\u5c71\u4e0a\u804a",
      "score": 0,
      "latitude": 25.160799,
      "longitude": 121.543172,
      "type": "normal",
      "attr": {
        "is_starred": false,
        "is_donated": false,
        "is_friendly": false
      },
      "qualified": true,
      "isGoodForWorking": false
    },
    {
      "id": "22d01814-e60e-44e8-a1c0-7a4d69828804",
      "name": "\u733f\u7530\u5f65\u5496\u5561 \u8aa0\u54c1\u5357\u897f\u5e97",
      "score": 18,
      "latitude": 25.0523038,
      "longitude": 121.5211048,
      "type": "normal",
      "attr": {
        "is_starred": false,
        "is_donated": false,
        "is_friendly": false
      },
      "qualified": true,
      "isGoodForWorking": true
    },
    {
      "id": "2303c5c2-bf81-4a69-89ed-fc47bb7e57ac",
      "name": "\u6162\u52d5\u4f5c\u5496\u5561\u9928",
      "score": 27,
      "latitude": 25.048445,
      "longitude": 121.521863,
      "type": "normal",
      "attr": {
        "is_starred": false,
        "is_donated": false,
        "is_friendly": false
      },
      "qualified": true,
      "isGoodForWorking": true
    },
    {
      "id": "23366ce5-1898-46f6-ad01-192dfdb2262f",
      "name": "\u9580\u5eca\u5496\u5561",
      "score": 23,
      "latitude": 25.0332325,
      "longitude": 121.4320414,
      "type": "normal",
      "attr": {
        "is_starred": false,
        "is_donated": false,
        "is_friendly": false
      },
      "qualified": true,
      "isGoodForWorking": true
    },
    {
      "id": "235b285f-0081-4943-812a-dd80141e01e8",
      "name": "\u6d77\u502b\u5496\u5561",
      "score": 26,
      "latitude": 25.04443,
      "longitude": 121.51483,
      "type": "normal",
      "attr": {
        "is_starred": false,
        "is_donated": false,
        "is_friendly": false
      },
      "qualified": true,
      "isGoodForWorking": true
    },
    {
      "id": "2367a60f-2c08-4bb0-8ae4-d3e77fceff9f",
      "name": "\u9cf3\u5496\u5561Phoenix Coffee & Tea",
      "score": 27,
      "latitude": 25.0526309,
      "longitude": 121.5391686,
      "type": "normal",
      "attr": { "is_starred": true, "is_donated": false, "is_friendly": false },
      "qualified": true,
      "isGoodForWorking": true
    },
    {
      "id": "23ed7925-338d-4941-8e07-6ef0ca21799e",
      "name": "\u5eda\u85dd\u98df\u574a",
      "score": 17,
      "latitude": 25.046674,
      "longitude": 121.5416548,
      "type": "normal",
      "attr": {
        "is_starred": false,
        "is_donated": false,
        "is_friendly": false
      },
      "qualified": true,
      "isGoodForWorking": false
    },
    {
      "id": "245376a5-28e1-43a3-971e-61672fbde4c6",
      "name": "\u795e\u71c8\u5496\u5561",
      "score": 0,
      "latitude": 25.0119769,
      "longitude": 121.4662662,
      "type": "normal",
      "attr": {
        "is_starred": false,
        "is_donated": false,
        "is_friendly": false
      },
      "qualified": true,
      "isGoodForWorking": false
    },
    {
      "id": "24bcc1e7-13bf-468f-8114-63ae777ea75b",
      "name": "DOTEL Coffice Ximen \u897f\u9580\u753a\u624b\u6c96\u5496\u5561\u9928",
      "score": 0,
      "latitude": 25.0444867,
      "longitude": 121.5017211,
      "type": "normal",
      "attr": {
        "is_starred": false,
        "is_donated": false,
        "is_friendly": false
      },
      "qualified": true,
      "isGoodForWorking": false
    },
    {
      "id": "24de33e5-48a1-4dda-81f4-64e433e85cf0",
      "name": "Cafe a la mode",
      "score": 0,
      "latitude": 25.023665,
      "longitude": 121.527232,
      "type": "normal",
      "attr": {
        "is_starred": false,
        "is_donated": false,
        "is_friendly": false
      },
      "qualified": true,
      "isGoodForWorking": false
    },
    {
      "id": "24ec1e04-13ff-4333-bd36-2ac8a76918a5",
      "name": " Hi Nei Dou",
      "score": 22,
      "latitude": 25.029292,
      "longitude": 121.528238,
      "type": "normal",
      "attr": {
        "is_starred": false,
        "is_donated": false,
        "is_friendly": false
      },
      "qualified": true,
      "isGoodForWorking": true
    },
    {
      "id": "24f74536-81ff-4033-a7bc-eff0b57bb4af",
      "name": "\u7121\u7720workshop ",
      "score": 26,
      "latitude": 25.1419409,
      "longitude": 121.500039,
      "type": "normal",
      "attr": {
        "is_starred": false,
        "is_donated": false,
        "is_friendly": false
      },
      "qualified": true,
      "isGoodForWorking": false
    },
    {
      "id": "24f8713e-3b49-4896-a4fb-6f0f717df09e",
      "name": "Goodmans Coffee \u829d\u5c71\u5e97",
      "score": 25,
      "latitude": 25.1054792,
      "longitude": 121.5234148,
      "type": "normal",
      "attr": {
        "is_starred": false,
        "is_donated": false,
        "is_friendly": false
      },
      "qualified": true,
      "isGoodForWorking": true
    },
    {
      "id": "25016e11-6b77-44e4-a92b-01229a0afea9",
      "name": "\u4e8c\u4e94\u8857\u89d2\u5496\u5561\u8f15\u98df\u9928",
      "score": 27,
      "latitude": 25.0186275,
      "longitude": 121.55816,
      "type": "normal",
      "attr": {
        "is_starred": false,
        "is_donated": false,
        "is_friendly": false
      },
      "qualified": true,
      "isGoodForWorking": true
    },
    {
      "id": "25120238-e5d9-4c48-8340-6d7360451f5c",
      "name": "\u6e5b\u76e7\u5496\u5561\u53f0\u5927\u9928",
      "score": 18.5,
      "latitude": 25.016063,
      "longitude": 121.531908,
      "type": "normal",
      "attr": {
        "is_starred": false,
        "is_donated": false,
        "is_friendly": false
      },
      "qualified": true,
      "isGoodForWorking": false
    },
    {
      "id": "252b0827-eec2-4fb2-a827-801f8c2eafa8",
      "name": "\u65c5\u6c90\u8c46\u884c",
      "score": 22.5,
      "latitude": 25.060036,
      "longitude": 121.541823,
      "type": "normal",
      "attr": {
        "is_starred": false,
        "is_donated": false,
        "is_friendly": false
      },
      "qualified": true,
      "isGoodForWorking": true
    },
    {
      "id": "2597c1f2-0144-4bcd-972a-63d63f49a269",
      "name": "Antee Cafe \u5b89\u7df9\u624b\u6c96\u5496\u5561\u9928",
      "score": 0,
      "latitude": 25.1696652,
      "longitude": 121.4481321,
      "type": "normal",
      "attr": {
        "is_starred": false,
        "is_donated": false,
        "is_friendly": false
      },
      "qualified": true,
      "isGoodForWorking": false
    },
    {
      "id": "2646eb09-8e4e-4f5b-89ea-5bf394a2e0c2",
      "name": "\u5ff5\u5ff5\u5496\u5561\u9928",
      "score": 29,
      "latitude": 25.0488608,
      "longitude": 121.5466814,
      "type": "normal",
      "attr": {
        "is_starred": false,
        "is_donated": false,
        "is_friendly": false
      },
      "qualified": true,
      "isGoodForWorking": false
    },
    {
      "id": "2692523d-7bc4-435e-ac69-ab5b5f7c3032",
      "name": "Joe's Cafe",
      "score": 24,
      "latitude": 25.0607613,
      "longitude": 121.5623304,
      "type": "normal",
      "attr": {
        "is_starred": false,
        "is_donated": false,
        "is_friendly": false
      },
      "qualified": true,
      "isGoodForWorking": false
    },
    {
      "id": "26da3382-7f1b-45d6-a395-59088c7f7c1f",
      "name": "QP Caf\u00e9",
      "score": 26,
      "latitude": 25.1743285,
      "longitude": 121.4465274,
      "type": "normal",
      "attr": {
        "is_starred": false,
        "is_donated": false,
        "is_friendly": false
      },
      "qualified": true,
      "isGoodForWorking": true
    },
    {
      "id": "26f25223-1cd3-436b-a9fa-87ed6be6691c",
      "name": "about KUAN \u5bec\u5ead\uff08\u8aa0\u54c1\u751f\u6d3b\u5357\u897f\u5e972\u6a13\uff09",
      "score": 0,
      "latitude": 25.0521315,
      "longitude": 121.520677,
      "type": "normal",
      "attr": {
        "is_starred": false,
        "is_donated": false,
        "is_friendly": false
      },
      "qualified": true,
      "isGoodForWorking": false
    },
    {
      "id": "277213f5-34ce-4cb7-9ff1-e33be1d41205",
      "name": "\u7c73\u5361\u5496\u5561 Mica Coffee",
      "score": 16,
      "latitude": 25.034838,
      "longitude": 121.4988572,
      "type": "normal",
      "attr": {
        "is_starred": false,
        "is_donated": false,
        "is_friendly": false
      },
      "qualified": true,
      "isGoodForWorking": false
    },
    {
      "id": "277aa983-1b05-4227-b815-11b8827994fc",
      "name": "\u8278\u860a",
      "score": 21.5,
      "latitude": 25.0268628,
      "longitude": 121.5183511,
      "type": "normal",
      "attr": {
        "is_starred": false,
        "is_donated": false,
        "is_friendly": false
      },
      "qualified": true,
      "isGoodForWorking": true
    },
    {
      "id": "2785ea9d-35d0-4ebb-9e7d-e2bb78facb6a",
      "name": "\u5c0f\u516c\u5bd3",
      "score": 22.5,
      "latitude": 24.9876087,
      "longitude": 121.5754459,
      "type": "normal",
      "attr": {
        "is_starred": false,
        "is_donated": false,
        "is_friendly": false
      },
      "qualified": true,
      "isGoodForWorking": true
    },
    {
      "id": "27a5300b-c5fb-46a4-97e2-388607d227d0",
      "name": "1:12",
      "score": 27.5,
      "latitude": 25.013743,
      "longitude": 121.5350049,
      "type": "normal",
      "attr": {
        "is_starred": false,
        "is_donated": false,
        "is_friendly": false
      },
      "qualified": true,
      "isGoodForWorking": true
    },
    {
      "id": "27a5bb23-2b25-4710-9557-1fcb5378a5a6",
      "name": "Take away_\u5e36\u8457\u8d70",
      "score": 21,
      "latitude": 25.0950652,
      "longitude": 121.5264933,
      "type": "normal",
      "attr": {
        "is_starred": false,
        "is_donated": false,
        "is_friendly": false
      },
      "qualified": true,
      "isGoodForWorking": false
    },
    {
      "id": "2869a8b6-5c88-4671-bc3d-c19838ee31b8",
      "name": "ISLANDER\u590f\u5a01\u5937\u5496\u5561 \u4fe1\u7fa9\u8aa0\u54c1\u4e00\u865f\u5e97",
      "score": 0,
      "latitude": 25.0397197,
      "longitude": 121.5658739,
      "type": "normal",
      "attr": {
        "is_starred": false,
        "is_donated": false,
        "is_friendly": false
      },
      "qualified": true,
      "isGoodForWorking": false
    },
    {
      "id": "28d44083-181d-4f61-a70e-e1492e07359c",
      "name": "\u9748\u611f\u5496\u5561",
      "score": 27,
      "latitude": 25.0188775,
      "longitude": 121.5334191,
      "type": "normal",
      "attr": { "is_starred": true, "is_donated": false, "is_friendly": false },
      "qualified": true,
      "isGoodForWorking": true
    },
    {
      "id": "292c6e7d-c5d9-45c2-a944-7cc5f3c52ceb",
      "name": "Tiecafe",
      "score": 23,
      "latitude": 25.0702883,
      "longitude": 121.588293,
      "type": "normal",
      "attr": {
        "is_starred": false,
        "is_donated": false,
        "is_friendly": false
      },
      "qualified": true,
      "isGoodForWorking": false
    },
    {
      "id": "294c4609-123c-4096-a6d7-88d67c833143",
      "name": "\u5357\u53c3\u9678\u5496\u5561",
      "score": 25,
      "latitude": 24.9904715,
      "longitude": 121.5091135,
      "type": "normal",
      "attr": {
        "is_starred": false,
        "is_donated": false,
        "is_friendly": false
      },
      "qualified": true,
      "isGoodForWorking": true
    },
    {
      "id": "297ab8a1-465d-4959-8bcd-b497fa31141c",
      "name": "\u89d2\u516c\u5712\u5496\u5561 Triangle Garden Cafe",
      "score": 29,
      "latitude": 25.0530659,
      "longitude": 121.5161014,
      "type": "normal",
      "attr": { "is_starred": true, "is_donated": false, "is_friendly": false },
      "qualified": true,
      "isGoodForWorking": true
    },
    {
      "id": "29866ab3-7ba8-4209-9c6a-b083c286cad1",
      "name": "\u8afe\u4f0a nooi cafe",
      "score": 0,
      "latitude": 25.037327,
      "longitude": 121.556671,
      "type": "normal",
      "attr": {
        "is_starred": false,
        "is_donated": false,
        "is_friendly": false
      },
      "qualified": true,
      "isGoodForWorking": false
    },
    {
      "id": "29951547-0496-4fcc-b07d-aeba8c0ca491",
      "name": "Oneway CAFE",
      "score": 29,
      "latitude": 25.0231076,
      "longitude": 121.5427936,
      "type": "normal",
      "attr": {
        "is_starred": false,
        "is_donated": false,
        "is_friendly": false
      },
      "qualified": true,
      "isGoodForWorking": true
    },
    {
      "id": "29a6db3a-3df2-472f-b75b-f01d507c48f8",
      "name": "\u805e\u5c71\u5496\u5561 \u53f0\u5927\u5e97",
      "score": 25,
      "latitude": 25.0206471,
      "longitude": 121.5333263,
      "type": "normal",
      "attr": {
        "is_starred": false,
        "is_donated": false,
        "is_friendly": false
      },
      "qualified": true,
      "isGoodForWorking": true
    },
    {
      "id": "29bf836a-0d66-4cca-9cc5-6bc7d46b8591",
      "name": "La Design Cafe \u8a2d\u8a08\u5e2b\u7684\u5496\u5561\u9928",
      "score": 25,
      "latitude": 25.03061,
      "longitude": 121.529385,
      "type": "normal",
      "attr": {
        "is_starred": false,
        "is_donated": false,
        "is_friendly": false
      },
      "qualified": true,
      "isGoodForWorking": false
    },
    {
      "id": "2a37a816-7632-410e-bf6b-9d3b32ed3873",
      "name": "COFFEE LOVER's PLANET",
      "score": 19.5,
      "latitude": 25.040247,
      "longitude": 121.5483374,
      "type": "normal",
      "attr": {
        "is_starred": false,
        "is_donated": false,
        "is_friendly": false
      },
      "qualified": true,
      "isGoodForWorking": false
    },
    {
      "id": "2a8a73fa-503a-4c3b-b760-65cc366c14cd",
      "name": " \u7da0\u91ce\u4ed9\u8e64Wonderland cafe",
      "score": 22.5,
      "latitude": 25.111017,
      "longitude": 121.520747,
      "type": "normal",
      "attr": {
        "is_starred": false,
        "is_donated": false,
        "is_friendly": false
      },
      "qualified": true,
      "isGoodForWorking": true
    },
    {
      "id": "2ac9b222-1821-4bb2-a319-530bf8935e1a",
      "name": "Boulangerie Le Gout",
      "score": 22,
      "latitude": 25.0736585,
      "longitude": 121.5762583,
      "type": "normal",
      "attr": {
        "is_starred": false,
        "is_donated": false,
        "is_friendly": false
      },
      "qualified": true,
      "isGoodForWorking": false
    },
    {
      "id": "2b08da1b-a966-4a35-b876-bdf1d186a45f",
      "name": "\u79aa\u98a8\u6703\u9928",
      "score": 28,
      "latitude": 25.0450001,
      "longitude": 121.52317,
      "type": "normal",
      "attr": {
        "is_starred": false,
        "is_donated": false,
        "is_friendly": false
      },
      "qualified": true,
      "isGoodForWorking": false
    },
    {
      "id": "2b382609-d30d-479d-adf4-5226fa9f157b",
      "name": " \u5967\u863f\u8309 OROMO CAFE \u58eb\u6797\u5e97",
      "score": 22,
      "latitude": 25.0944476,
      "longitude": 121.5256836,
      "type": "normal",
      "attr": {
        "is_starred": false,
        "is_donated": false,
        "is_friendly": false
      },
      "qualified": true,
      "isGoodForWorking": true
    },
    {
      "id": "2b394e9c-1d57-457f-95c9-5c8cebccefe8",
      "name": " \u8331\u8389\u96dc\u8ca8\u8216Julie's grocery&cafe",
      "score": 0,
      "latitude": 25.0729928,
      "longitude": 121.36543,
      "type": "normal",
      "attr": {
        "is_starred": false,
        "is_donated": false,
        "is_friendly": false
      },
      "qualified": true,
      "isGoodForWorking": false
    },
    {
      "id": "2b62e22a-eda3-4d9f-8f0b-cbda98f4bf24",
      "name": "\u9b5a\u7f38\u73c8\u7432",
      "score": 27,
      "latitude": 25.084157,
      "longitude": 121.475191,
      "type": "normal",
      "attr": {
        "is_starred": false,
        "is_donated": false,
        "is_friendly": false
      },
      "qualified": true,
      "isGoodForWorking": true
    },
    {
      "id": "2b77b3fd-9691-4fd0-a0a3-6243f9a98c3e",
      "name": "The Edge \u908a\u7de3\u5496\u5561",
      "score": 29,
      "latitude": 25.1357575,
      "longitude": 121.4602413,
      "type": "normal",
      "attr": {
        "is_starred": false,
        "is_donated": false,
        "is_friendly": false
      },
      "qualified": true,
      "isGoodForWorking": true
    },
    {
      "id": "2bc34fcf-0d9f-4a45-8a16-b8c027778457",
      "name": "\u6728\u767d\u751c\u9ede\u5496\u5561\u5e97",
      "score": 25,
      "latitude": 25.0584328,
      "longitude": 121.5324296,
      "type": "normal",
      "attr": {
        "is_starred": false,
        "is_donated": false,
        "is_friendly": false
      },
      "qualified": true,
      "isGoodForWorking": true
    },
    {
      "id": "2bd805dd-ab87-4169-9030-d288795a33e7",
      "name": "\u70d8\u52a0\u5496\u5561",
      "score": 27,
      "latitude": 25.0296646,
      "longitude": 121.5458839,
      "type": "normal",
      "attr": {
        "is_starred": false,
        "is_donated": false,
        "is_friendly": false
      },
      "qualified": true,
      "isGoodForWorking": false
    },
    {
      "id": "2c764557-5d92-49f8-aba8-8eb674ccc2ad",
      "name": "Tag Coffee \u5854\u53ef\u5496\u5561",
      "score": 0,
      "latitude": 24.986407,
      "longitude": 121.512311,
      "type": "normal",
      "attr": {
        "is_starred": false,
        "is_donated": false,
        "is_friendly": false
      },
      "qualified": true,
      "isGoodForWorking": false
    },
    {
      "id": "2c84fdf0-7d2d-4e90-82f9-f3b9af16af6b",
      "name": "\u8c46\u5de5\u5834\u81ea\u5bb6\u70d8\u7119\u5496\u5561\u9928",
      "score": 22,
      "latitude": 25.0026178,
      "longitude": 121.5125384,
      "type": "normal",
      "attr": {
        "is_starred": false,
        "is_donated": false,
        "is_friendly": false
      },
      "qualified": true,
      "isGoodForWorking": true
    },
    {
      "id": "2c89e80c-2c5f-4151-80d5-80ad718cfbd4",
      "name": "\u7368\u5496\u5561",
      "score": 30,
      "latitude": 25.0851072,
      "longitude": 121.2889432,
      "type": "normal",
      "attr": {
        "is_starred": false,
        "is_donated": false,
        "is_friendly": false
      },
      "qualified": true,
      "isGoodForWorking": false
    },
    {
      "id": "2ca932fc-93ea-4d3f-873e-c322befc9735",
      "name": "\u4e0a\u5cf6\u5496\u5561\u5e97\uff08\u8aa0\u54c1\u7ad9\u524d\u5e97\uff09",
      "score": 24.5,
      "latitude": 25.0469975,
      "longitude": 121.5161383,
      "type": "normal",
      "attr": {
        "is_starred": false,
        "is_donated": false,
        "is_friendly": false
      },
      "qualified": true,
      "isGoodForWorking": true
    },
    {
      "id": "2cae28da-b183-44b1-bea5-abaa77cfd21f",
      "name": "Louisa \u65b0\u5e97\u4e2d\u6b63\u5e97",
      "score": 24,
      "latitude": 24.983186,
      "longitude": 121.533966,
      "type": "normal",
      "attr": {
        "is_starred": false,
        "is_donated": false,
        "is_friendly": false
      },
      "qualified": true,
      "isGoodForWorking": false
    },
    {
      "id": "2ce61b0c-09a5-4049-8504-85f1bab63d37",
      "name": "\u5496\u5561\u4eba",
      "score": 18,
      "latitude": 25.0560881,
      "longitude": 121.6133736,
      "type": "normal",
      "attr": {
        "is_starred": false,
        "is_donated": false,
        "is_friendly": false
      },
      "qualified": true,
      "isGoodForWorking": false
    },
    {
      "id": "2cf82921-890f-4b9a-9941-95d8ef3cffd5",
      "name": "\u9b27\u5496\u5561 NOW coffee",
      "score": 28,
      "latitude": 25.0455055,
      "longitude": 121.5104056,
      "type": "normal",
      "attr": {
        "is_starred": false,
        "is_donated": false,
        "is_friendly": false
      },
      "qualified": true,
      "isGoodForWorking": true
    },
    {
      "id": "2d149b77-026e-402b-a471-93c3e498b1d7",
      "name": "\u6c34\u725b\u66f8\u5e97",
      "score": 26,
      "latitude": 25.027515,
      "longitude": 121.53998,
      "type": "normal",
      "attr": {
        "is_starred": false,
        "is_donated": false,
        "is_friendly": false
      },
      "qualified": true,
      "isGoodForWorking": true
    },